ÃÂÃÂÃÂÃÂÃÂÃÂÃÂÃÂÃÂÃÂÃÂÃÂÃÂÃÂÃÂÃÂÃÂÃÂÃÂÃÂÃÂÃÂÃÂÃÂÃÂÃÂÃÂÃÂÃÂÃÂÃÂÃÂ¯ÃÂÃÂÃÂÃÂÃÂÃÂÃÂÃÂÃÂÃÂÃÂÃÂÃÂÃÂÃÂÃÂÃÂÃÂÃÂÃÂÃÂÃÂÃÂÃÂÃÂÃÂÃÂÃÂÃÂÃÂÃÂÃÂ»ÃÂÃÂÃÂÃÂÃÂÃÂÃÂÃÂÃÂÃÂÃÂÃÂÃÂÃÂÃÂÃÂÃÂÃÂÃÂÃÂÃÂÃÂÃÂÃÂÃÂÃÂÃÂÃÂÃÂÃÂÃÂÃÂ¿stop_id,stop_name,stop_lat,stop_lon,zone_id,stop_url,location_type,parent_station,wheelchair_boarding
de:07334:1714:1:1,WÃÂÃÂÃÂÃÂÃÂÃÂÃÂÃÂÃÂÃÂÃÂÃÂÃÂÃÂÃÂÃÂÃÂÃÂÃÂÃÂÃÂÃÂÃÂÃÂÃÂÃÂÃÂÃÂÃÂÃÂÃÂÃÂÃÂÃÂÃÂÃÂÃÂÃÂÃÂÃÂÃÂÃÂÃÂÃÂÃÂÃÂÃÂÃÂÃÂÃÂÃÂÃÂÃÂÃÂÃÂÃÂÃÂÃÂÃÂÃÂÃÂÃÂÃÂÃÂ¶rth (Rhein) Alte Bahnmeisterei,-1.2807997117420118,36.82282355792519,,,,P1714,0
de:07334:1714:1:2,WÃÂÃÂÃÂÃÂÃÂÃÂÃÂÃÂÃÂÃÂÃÂÃÂÃÂÃÂÃÂÃÂÃÂÃÂÃÂÃÂÃÂÃÂÃÂÃÂÃÂÃÂÃÂÃÂÃÂÃÂÃÂÃÂÃÂÃÂÃÂÃÂÃÂÃÂÃÂÃÂÃÂÃÂÃÂÃÂÃÂÃÂÃÂÃÂÃÂÃÂÃÂÃÂÃÂÃÂÃÂÃÂÃÂÃÂÃÂÃÂÃÂÃÂÃÂÃÂ¶rth (Rhein) Alte Bahnmeisterei,-1.286483627594707,36.81403340793073,,,,P1714,0
de:07334:1721:1:1,Maximiliansau EisenbahnstraÃÂÃÂÃÂÃÂÃÂÃÂÃÂÃÂÃÂÃÂÃÂÃÂÃÂÃÂÃÂÃÂÃÂÃÂÃÂÃÂÃÂÃÂÃÂÃÂÃÂÃÂÃÂÃÂÃÂÃÂÃÂÃÂÃÂÃÂÃÂÃÂÃÂÃÂÃÂÃÂÃÂÃÂÃÂÃÂÃÂÃÂÃÂÃÂÃÂÃÂÃÂÃÂÃÂÃÂÃÂÃÂÃÂÃÂÃÂÃÂÃÂÃÂÃÂÃÂe,-1.28310528951587,36.82093551901382,,,,P1721,0
de:07334:1721:2:2,Maximiliansau EisenbahnstraÃÂÃÂÃÂÃÂÃÂÃÂÃÂÃÂÃÂÃÂÃÂÃÂÃÂÃÂÃÂÃÂÃÂÃÂÃÂÃÂÃÂÃÂÃÂÃÂÃÂÃÂÃÂÃÂÃÂÃÂÃÂÃÂÃÂÃÂÃÂÃÂÃÂÃÂÃÂÃÂÃÂÃÂÃÂÃÂÃÂÃÂÃÂÃÂÃÂÃÂÃÂÃÂÃÂÃÂÃÂÃÂÃÂÃÂÃÂÃÂÃÂÃÂÃÂÃÂe,-1.2991820317845963,36.829991912221125,,,,P1721,0
de:07334:1721:3:31,Maximiliansau EisenbahnstraÃÂÃÂÃÂÃÂÃÂÃÂÃÂÃÂÃÂÃÂÃÂÃÂÃÂÃÂÃÂÃÂÃÂÃÂÃÂÃÂÃÂÃÂÃÂÃÂÃÂÃÂÃÂÃÂÃÂÃÂÃÂÃÂÃÂÃÂÃÂÃÂÃÂÃÂÃÂÃÂÃÂÃÂÃÂÃÂÃÂÃÂÃÂÃÂÃÂÃÂÃÂÃÂÃÂÃÂÃÂÃÂÃÂÃÂÃÂÃÂÃÂÃÂÃÂÃÂe,-1.2952122919234952,36.82120939244148,,,,P1721,0
de:07334:1721:3:32,Maximiliansau EisenbahnstraÃÂÃÂÃÂÃÂÃÂÃÂÃÂÃÂÃÂÃÂÃÂÃÂÃÂÃÂÃÂÃÂÃÂÃÂÃÂÃÂÃÂÃÂÃÂÃÂÃÂÃÂÃÂÃÂÃÂÃÂÃÂÃÂÃÂÃÂÃÂÃÂÃÂÃÂÃÂÃÂÃÂÃÂÃÂÃÂÃÂÃÂÃÂÃÂÃÂÃÂÃÂÃÂÃÂÃÂÃÂÃÂÃÂÃÂÃÂÃÂÃÂÃÂÃÂÃÂe,-1.280799248356322,36.817787678312364,,,,P1721,0
de:07334:1723:1:1,Maximiliansau West,-1.296651714235788,36.814489568900484,,,,P1723,0
de:07334:1723:2:2,Maximiliansau West,-1.2867892625333752,36.816752063889254,,,,P1723,0
de:07334:1723:3:31,Maximiliansau West,-1.2852921052710706,36.81401736355294,,,,P1723,0
de:07334:1731:2:3,WÃÂÃÂÃÂÃÂÃÂÃÂÃÂÃÂÃÂÃÂÃÂÃÂÃÂÃÂÃÂÃÂÃÂÃÂÃÂÃÂÃÂÃÂÃÂÃÂÃÂÃÂÃÂÃÂÃÂÃÂÃÂÃÂÃÂÃÂÃÂÃÂÃÂÃÂÃÂÃÂÃÂÃÂÃÂÃÂÃÂÃÂÃÂÃÂÃÂÃÂÃÂÃÂÃÂÃÂÃÂÃÂÃÂÃÂÃÂÃÂÃÂÃÂÃÂÃÂ¶rth (Rhein),-1.2973515154372801,36.811082720072385,,,,P1731,0
de:07334:1731:4:11,WÃÂÃÂÃÂÃÂÃÂÃÂÃÂÃÂÃÂÃÂÃÂÃÂÃÂÃÂÃÂÃÂÃÂÃÂÃÂÃÂÃÂÃÂÃÂÃÂÃÂÃÂÃÂÃÂÃÂÃÂÃÂÃÂÃÂÃÂÃÂÃÂÃÂÃÂÃÂÃÂÃÂÃÂÃÂÃÂÃÂÃÂÃÂÃÂÃÂÃÂÃÂÃÂÃÂÃÂÃÂÃÂÃÂÃÂÃÂÃÂÃÂÃÂÃÂÃÂ¶rth Bahnhof,-1.2902107876137892,36.818341807698225,,,,P1731,0
de:07334:1734:1:1,WÃÂÃÂÃÂÃÂÃÂÃÂÃÂÃÂÃÂÃÂÃÂÃÂÃÂÃÂÃÂÃÂÃÂÃÂÃÂÃÂÃÂÃÂÃÂÃÂÃÂÃÂÃÂÃÂÃÂÃÂÃÂÃÂÃÂÃÂÃÂÃÂÃÂÃÂÃÂÃÂÃÂÃÂÃÂÃÂÃÂÃÂÃÂÃÂÃÂÃÂÃÂÃÂÃÂÃÂÃÂÃÂÃÂÃÂÃÂÃÂÃÂÃÂÃÂÃÂ¶rth (Rhein) Bienwaldhalle,-1.2836139281919339,36.82428581697409,,,,P1734,0
de:07334:1734:2:2,WÃÂÃÂÃÂÃÂÃÂÃÂÃÂÃÂÃÂÃÂÃÂÃÂÃÂÃÂÃÂÃÂÃÂÃÂÃÂÃÂÃÂÃÂÃÂÃÂÃÂÃÂÃÂÃÂÃÂÃÂÃÂÃÂÃÂÃÂÃÂÃÂÃÂÃÂÃÂÃÂÃÂÃÂÃÂÃÂÃÂÃÂÃÂÃÂÃÂÃÂÃÂÃÂÃÂÃÂÃÂÃÂÃÂÃÂÃÂÃÂÃÂÃÂÃÂÃÂ¶rth (Rhein) Bienwaldhalle,-1.2946699265794397,36.81907574712674,,,,P1734,0
de:07334:1735:1:1,WÃÂÃÂÃÂÃÂÃÂÃÂÃÂÃÂÃÂÃÂÃÂÃÂÃÂÃÂÃÂÃÂÃÂÃÂÃÂÃÂÃÂÃÂÃÂÃÂÃÂÃÂÃÂÃÂÃÂÃÂÃÂÃÂÃÂÃÂÃÂÃÂÃÂÃÂÃÂÃÂÃÂÃÂÃÂÃÂÃÂÃÂÃÂÃÂÃÂÃÂÃÂÃÂÃÂÃÂÃÂÃÂÃÂÃÂÃÂÃÂÃÂÃÂÃÂÃÂ¶rth (Rhein) BÃÂÃÂÃÂÃÂÃÂÃÂÃÂÃÂÃÂÃÂÃÂÃÂÃÂÃÂÃÂÃÂÃÂÃÂÃÂÃÂÃÂÃÂÃÂÃÂÃÂÃÂÃÂÃÂÃÂÃÂÃÂÃÂÃÂÃÂÃÂÃÂÃÂÃÂÃÂÃÂÃÂÃÂÃÂÃÂÃÂÃÂÃÂÃÂÃÂÃÂÃÂÃÂÃÂÃÂÃÂÃÂÃÂÃÂÃÂÃÂÃÂÃÂÃÂÃÂ¼rgerpark,-1.2943553421893914,36.81846789072569,,,,P1735,0
de:07334:1735:2:2,WÃÂÃÂÃÂÃÂÃÂÃÂÃÂÃÂÃÂÃÂÃÂÃÂÃÂÃÂÃÂÃÂÃÂÃÂÃÂÃÂÃÂÃÂÃÂÃÂÃÂÃÂÃÂÃÂÃÂÃÂÃÂÃÂÃÂÃÂÃÂÃÂÃÂÃÂÃÂÃÂÃÂÃÂÃÂÃÂÃÂÃÂÃÂÃÂÃÂÃÂÃÂÃÂÃÂÃÂÃÂÃÂÃÂÃÂÃÂÃÂÃÂÃÂÃÂÃÂ¶rth (Rhein) BÃÂÃÂÃÂÃÂÃÂÃÂÃÂÃÂÃÂÃÂÃÂÃÂÃÂÃÂÃÂÃÂÃÂÃÂÃÂÃÂÃÂÃÂÃÂÃÂÃÂÃÂÃÂÃÂÃÂÃÂÃÂÃÂÃÂÃÂÃÂÃÂÃÂÃÂÃÂÃÂÃÂÃÂÃÂÃÂÃÂÃÂÃÂÃÂÃÂÃÂÃÂÃÂÃÂÃÂÃÂÃÂÃÂÃÂÃÂÃÂÃÂÃÂÃÂÃÂ¼rgerpark,-1.2858530289898158,36.82807657348517,,,,P1735,0
de:07334:1736:1:1,WÃÂÃÂÃÂÃÂÃÂÃÂÃÂÃÂÃÂÃÂÃÂÃÂÃÂÃÂÃÂÃÂÃÂÃÂÃÂÃÂÃÂÃÂÃÂÃÂÃÂÃÂÃÂÃÂÃÂÃÂÃÂÃÂÃÂÃÂÃÂÃÂÃÂÃÂÃÂÃÂÃÂÃÂÃÂÃÂÃÂÃÂÃÂÃÂÃÂÃÂÃÂÃÂÃÂÃÂÃÂÃÂÃÂÃÂÃÂÃÂÃÂÃÂÃÂÃÂ¶rth (Rhein) Rathaus,-1.286861338131328,36.82921109149152,,,,P1736,0
de:07334:1736:2:11,WÃÂÃÂÃÂÃÂÃÂÃÂÃÂÃÂÃÂÃÂÃÂÃÂÃÂÃÂÃÂÃÂÃÂÃÂÃÂÃÂÃÂÃÂÃÂÃÂÃÂÃÂÃÂÃÂÃÂÃÂÃÂÃÂÃÂÃÂÃÂÃÂÃÂÃÂÃÂÃÂÃÂÃÂÃÂÃÂÃÂÃÂÃÂÃÂÃÂÃÂÃÂÃÂÃÂÃÂÃÂÃÂÃÂÃÂÃÂÃÂÃÂÃÂÃÂÃÂ¶rth (Rhein) Rathaus,-1.2935772273224864,36.82962416958551,,,,P1736,0
de:07334:1738:1:1,WÃÂÃÂÃÂÃÂÃÂÃÂÃÂÃÂÃÂÃÂÃÂÃÂÃÂÃÂÃÂÃÂÃÂÃÂÃÂÃÂÃÂÃÂÃÂÃÂÃÂÃÂÃÂÃÂÃÂÃÂÃÂÃÂÃÂÃÂÃÂÃÂÃÂÃÂÃÂÃÂÃÂÃÂÃÂÃÂÃÂÃÂÃÂÃÂÃÂÃÂÃÂÃÂÃÂÃÂÃÂÃÂÃÂÃÂÃÂÃÂÃÂÃÂÃÂÃÂ¶rth (Rhein) Badepark,-1.29694685940091,36.81812591903775,,,,P1738,0
de:07334:1739:1:1,WÃÂÃÂÃÂÃÂÃÂÃÂÃÂÃÂÃÂÃÂÃÂÃÂÃÂÃÂÃÂÃÂÃÂÃÂÃÂÃÂÃÂÃÂÃÂÃÂÃÂÃÂÃÂÃÂÃÂÃÂÃÂÃÂÃÂÃÂÃÂÃÂÃÂÃÂÃÂÃÂÃÂÃÂÃÂÃÂÃÂÃÂÃÂÃÂÃÂÃÂÃÂÃÂÃÂÃÂÃÂÃÂÃÂÃÂÃÂÃÂÃÂÃÂÃÂÃÂ¶rth (Rhein) Badallee,-1.2914862676936238,36.82745714390948,,,,P1739,0
de:07334:1741:1:1,WÃÂÃÂÃÂÃÂÃÂÃÂÃÂÃÂÃÂÃÂÃÂÃÂÃÂÃÂÃÂÃÂÃÂÃÂÃÂÃÂÃÂÃÂÃÂÃÂÃÂÃÂÃÂÃÂÃÂÃÂÃÂÃÂÃÂÃÂÃÂÃÂÃÂÃÂÃÂÃÂÃÂÃÂÃÂÃÂÃÂÃÂÃÂÃÂÃÂÃÂÃÂÃÂÃÂÃÂÃÂÃÂÃÂÃÂÃÂÃÂÃÂÃÂÃÂÃÂ¶rth (Rhein) ZÃÂÃÂÃÂÃÂÃÂÃÂÃÂÃÂÃÂÃÂÃÂÃÂÃÂÃÂÃÂÃÂÃÂÃÂÃÂÃÂÃÂÃÂÃÂÃÂÃÂÃÂÃÂÃÂÃÂÃÂÃÂÃÂÃÂÃÂÃÂÃÂÃÂÃÂÃÂÃÂÃÂÃÂÃÂÃÂÃÂÃÂÃÂÃÂÃÂÃÂÃÂÃÂÃÂÃÂÃÂÃÂÃÂÃÂÃÂÃÂÃÂÃÂÃÂÃÂ¼gelstraÃÂÃÂÃÂÃÂÃÂÃÂÃÂÃÂÃÂÃÂÃÂÃÂÃÂÃÂÃÂÃÂÃÂÃÂÃÂÃÂÃÂÃÂÃÂÃÂÃÂÃÂÃÂÃÂÃÂÃÂÃÂÃÂÃÂÃÂÃÂÃÂÃÂÃÂÃÂÃÂÃÂÃÂÃÂÃÂÃÂÃÂÃÂÃÂÃÂÃÂÃÂÃÂÃÂÃÂÃÂÃÂÃÂÃÂÃÂÃÂÃÂÃÂÃÂÃÂe,-1.2989588293830407,36.82004787386535,,,,P1741,0
de:07334:1741:2:2,WÃÂÃÂÃÂÃÂÃÂÃÂÃÂÃÂÃÂÃÂÃÂÃÂÃÂÃÂÃÂÃÂÃÂÃÂÃÂÃÂÃÂÃÂÃÂÃÂÃÂÃÂÃÂÃÂÃÂÃÂÃÂÃÂÃÂÃÂÃÂÃÂÃÂÃÂÃÂÃÂÃÂÃÂÃÂÃÂÃÂÃÂÃÂÃÂÃÂÃÂÃÂÃÂÃÂÃÂÃÂÃÂÃÂÃÂÃÂÃÂÃÂÃÂÃÂÃÂ¶rth (Rhein) ZÃÂÃÂÃÂÃÂÃÂÃÂÃÂÃÂÃÂÃÂÃÂÃÂÃÂÃÂÃÂÃÂÃÂÃÂÃÂÃÂÃÂÃÂÃÂÃÂÃÂÃÂÃÂÃÂÃÂÃÂÃÂÃÂÃÂÃÂÃÂÃÂÃÂÃÂÃÂÃÂÃÂÃÂÃÂÃÂÃÂÃÂÃÂÃÂÃÂÃÂÃÂÃÂÃÂÃÂÃÂÃÂÃÂÃÂÃÂÃÂÃÂÃÂÃÂÃÂ¼gelstraÃÂÃÂÃÂÃÂÃÂÃÂÃÂÃÂÃÂÃÂÃÂÃÂÃÂÃÂÃÂÃÂÃÂÃÂÃÂÃÂÃÂÃÂÃÂÃÂÃÂÃÂÃÂÃÂÃÂÃÂÃÂÃÂÃÂÃÂÃÂÃÂÃÂÃÂÃÂÃÂÃÂÃÂÃÂÃÂÃÂÃÂÃÂÃÂÃÂÃÂÃÂÃÂÃÂÃÂÃÂÃÂÃÂÃÂÃÂÃÂÃÂÃÂÃÂÃÂe,-1.2924081085687043,36.817501533362744,,,,P1741,0
de:07334:1743:1:1,Rheinzabern Alte RÃÂÃÂÃÂÃÂÃÂÃÂÃÂÃÂÃÂÃÂÃÂÃÂÃÂÃÂÃÂÃÂÃÂÃÂÃÂÃÂÃÂÃÂÃÂÃÂÃÂÃÂÃÂÃÂÃÂÃÂÃÂÃÂÃÂÃÂÃÂÃÂÃÂÃÂÃÂÃÂÃÂÃÂÃÂÃÂÃÂÃÂÃÂÃÂÃÂÃÂÃÂÃÂÃÂÃÂÃÂÃÂÃÂÃÂÃÂÃÂÃÂÃÂÃÂÃÂ¶merstraÃÂÃÂÃÂÃÂÃÂÃÂÃÂÃÂÃÂÃÂÃÂÃÂÃÂÃÂÃÂÃÂÃÂÃÂÃÂÃÂÃÂÃÂÃÂÃÂÃÂÃÂÃÂÃÂÃÂÃÂÃÂÃÂÃÂÃÂÃÂÃÂÃÂÃÂÃÂÃÂÃÂÃÂÃÂÃÂÃÂÃÂÃÂÃÂÃÂÃÂÃÂÃÂÃÂÃÂÃÂÃÂÃÂÃÂÃÂÃÂÃÂÃÂÃÂÃÂe,-1.2898607101456099,36.82567496971901,,,,P1743,0
de:07334:1743:2:2,Rheinzabern Alte RÃÂÃÂÃÂÃÂÃÂÃÂÃÂÃÂÃÂÃÂÃÂÃÂÃÂÃÂÃÂÃÂÃÂÃÂÃÂÃÂÃÂÃÂÃÂÃÂÃÂÃÂÃÂÃÂÃÂÃÂÃÂÃÂÃÂÃÂÃÂÃÂÃÂÃÂÃÂÃÂÃÂÃÂÃÂÃÂÃÂÃÂÃÂÃÂÃÂÃÂÃÂÃÂÃÂÃÂÃÂÃÂÃÂÃÂÃÂÃÂÃÂÃÂÃÂÃÂ¶merstraÃÂÃÂÃÂÃÂÃÂÃÂÃÂÃÂÃÂÃÂÃÂÃÂÃÂÃÂÃÂÃÂÃÂÃÂÃÂÃÂÃÂÃÂÃÂÃÂÃÂÃÂÃÂÃÂÃÂÃÂÃÂÃÂÃÂÃÂÃÂÃÂÃÂÃÂÃÂÃÂÃÂÃÂÃÂÃÂÃÂÃÂÃÂÃÂÃÂÃÂÃÂÃÂÃÂÃÂÃÂÃÂÃÂÃÂÃÂÃÂÃÂÃÂÃÂÃÂe,-1.2961874198630294,36.82740616354904,,,,P1743,0
de:07334:1743:3:91,Rheinzabern Alte RÃÂÃÂÃÂÃÂÃÂÃÂÃÂÃÂÃÂÃÂÃÂÃÂÃÂÃÂÃÂÃÂÃÂÃÂÃÂÃÂÃÂÃÂÃÂÃÂÃÂÃÂÃÂÃÂÃÂÃÂÃÂÃÂÃÂÃÂÃÂÃÂÃÂÃÂÃÂÃÂÃÂÃÂÃÂÃÂÃÂÃÂÃÂÃÂÃÂÃÂÃÂÃÂÃÂÃÂÃÂÃÂÃÂÃÂÃÂÃÂÃÂÃÂÃÂÃÂ¶merstr. (Ersatz),-1.2889751854370664,36.82648735820621,,,,P1743,0
de:07334:1744:1:1,Rheinzabern Rappengasse,-1.281494048298865,36.82497347890404,,,,P1744,0
de:07334:1744:2:2,Rheinzabern Rappengasse,-1.2928561031785963,36.81822058297843,,,,P1744,0
de:07334:1744:6:91,Rheinzabern Rappengasse (Ersatzhalt),-1.2965368847823033,36.829937013915824,,,,P1744,0
de:07334:1744:6:92,Rheinzabern Rappengasse (Ersatzhalt),-1.2889463110999066,36.82701291265031,,,,P1744,0
de:07334:1745:1:1,RÃÂÃÂÃÂÃÂÃÂÃÂÃÂÃÂÃÂÃÂÃÂÃÂÃÂÃÂÃÂÃÂÃÂÃÂÃÂÃÂÃÂÃÂÃÂÃÂÃÂÃÂÃÂÃÂÃÂÃÂÃÂÃÂÃÂÃÂÃÂÃÂÃÂÃÂÃÂÃÂÃÂÃÂÃÂÃÂÃÂÃÂÃÂÃÂÃÂÃÂÃÂÃÂÃÂÃÂÃÂÃÂÃÂÃÂÃÂÃÂÃÂÃÂÃÂÃÂ¼lzheim Freizeitzentrum,-1.2991011064972773,36.81868688749935,,,,P1745,0
de:07334:1745:2:2,RÃÂÃÂÃÂÃÂÃÂÃÂÃÂÃÂÃÂÃÂÃÂÃÂÃÂÃÂÃÂÃÂÃÂÃÂÃÂÃÂÃÂÃÂÃÂÃÂÃÂÃÂÃÂÃÂÃÂÃÂÃÂÃÂÃÂÃÂÃÂÃÂÃÂÃÂÃÂÃÂÃÂÃÂÃÂÃÂÃÂÃÂÃÂÃÂÃÂÃÂÃÂÃÂÃÂÃÂÃÂÃÂÃÂÃÂÃÂÃÂÃÂÃÂÃÂÃÂ¼lzheim Freizeitzentrum,-1.2943660014355505,36.82416938709929,,,,P1745,0
de:07334:1745:3:91,RÃÂÃÂÃÂÃÂÃÂÃÂÃÂÃÂÃÂÃÂÃÂÃÂÃÂÃÂÃÂÃÂÃÂÃÂÃÂÃÂÃÂÃÂÃÂÃÂÃÂÃÂÃÂÃÂÃÂÃÂÃÂÃÂÃÂÃÂÃÂÃÂÃÂÃÂÃÂÃÂÃÂÃÂÃÂÃÂÃÂÃÂÃÂÃÂÃÂÃÂÃÂÃÂÃÂÃÂÃÂÃÂÃÂÃÂÃÂÃÂÃÂÃÂÃÂÃÂ¼lzheim Freizeitzentrum (Ersatzhalt),-1.297928088463941,36.82003862625238,,,,P1745,0
de:07334:1745:3:92,RÃÂÃÂÃÂÃÂÃÂÃÂÃÂÃÂÃÂÃÂÃÂÃÂÃÂÃÂÃÂÃÂÃÂÃÂÃÂÃÂÃÂÃÂÃÂÃÂÃÂÃÂÃÂÃÂÃÂÃÂÃÂÃÂÃÂÃÂÃÂÃÂÃÂÃÂÃÂÃÂÃÂÃÂÃÂÃÂÃÂÃÂÃÂÃÂÃÂÃÂÃÂÃÂÃÂÃÂÃÂÃÂÃÂÃÂÃÂÃÂÃÂÃÂÃÂÃÂ¼lzheim Freizeitzentrum (Ersatzhalt),-1.2809138851421071,36.82190801678954,,,,P1745,0
de:07334:1746:1:1,Bellheim Am MÃÂÃÂÃÂÃÂÃÂÃÂÃÂÃÂÃÂÃÂÃÂÃÂÃÂÃÂÃÂÃÂÃÂÃÂÃÂÃÂÃÂÃÂÃÂÃÂÃÂÃÂÃÂÃÂÃÂÃÂÃÂÃÂÃÂÃÂÃÂÃÂÃÂÃÂÃÂÃÂÃÂÃÂÃÂÃÂÃÂÃÂÃÂÃÂÃÂÃÂÃÂÃÂÃÂÃÂÃÂÃÂÃÂÃÂÃÂÃÂÃÂÃÂÃÂÃÂ¼hlbuckel,-1.2991550176507993,36.82653342697694,,,,P1746,0
de:07334:1746:2:2,Bellheim Am MÃÂÃÂÃÂÃÂÃÂÃÂÃÂÃÂÃÂÃÂÃÂÃÂÃÂÃÂÃÂÃÂÃÂÃÂÃÂÃÂÃÂÃÂÃÂÃÂÃÂÃÂÃÂÃÂÃÂÃÂÃÂÃÂÃÂÃÂÃÂÃÂÃÂÃÂÃÂÃÂÃÂÃÂÃÂÃÂÃÂÃÂÃÂÃÂÃÂÃÂÃÂÃÂÃÂÃÂÃÂÃÂÃÂÃÂÃÂÃÂÃÂÃÂÃÂÃÂ¼hlbuckel,-1.2879949363199386,36.818796618697604,,,,P1746,0
de:07334:1747:1:2,Germersheim SÃÂÃÂÃÂÃÂÃÂÃÂÃÂÃÂÃÂÃÂÃÂÃÂÃÂÃÂÃÂÃÂÃÂÃÂÃÂÃÂÃÂÃÂÃÂÃÂÃÂÃÂÃÂÃÂÃÂÃÂÃÂÃÂÃÂÃÂÃÂÃÂÃÂÃÂÃÂÃÂÃÂÃÂÃÂÃÂÃÂÃÂÃÂÃÂÃÂÃÂÃÂÃÂÃÂÃÂÃÂÃÂÃÂÃÂÃÂÃÂÃÂÃÂÃÂÃÂ¼d/Nolte,-1.2995282471986394,36.82512019714526,,,,P1747,0
de:07334:1747:2:1,Germersheim SÃÂÃÂÃÂÃÂÃÂÃÂÃÂÃÂÃÂÃÂÃÂÃÂÃÂÃÂÃÂÃÂÃÂÃÂÃÂÃÂÃÂÃÂÃÂÃÂÃÂÃÂÃÂÃÂÃÂÃÂÃÂÃÂÃÂÃÂÃÂÃÂÃÂÃÂÃÂÃÂÃÂÃÂÃÂÃÂÃÂÃÂÃÂÃÂÃÂÃÂÃÂÃÂÃÂÃÂÃÂÃÂÃÂÃÂÃÂÃÂÃÂÃÂÃÂÃÂ¼d/Nolte,-1.2993828682678308,36.82063245139869,,,,P1747,0
de:07334:1748:2:2,Germersheim Mitte/Rhein,-1.2924475205692236,36.82682734715399,,,,P1748,0
de:07334:1748:3:1,Germersheim Mitte/Rhein,-1.297632100256774,36.82585156922907,,,,P1748,0
de:07334:1748:4:91,Germersheim Mitte,-1.2909161414732797,36.81788236025843,,,,P1748,0
de:07334:1748:4:92,Germersheim Mitte,-1.2965224371336856,36.82981452177161,,,,P1748,0
de:07334:1752:1:1,WÃÂÃÂÃÂÃÂÃÂÃÂÃÂÃÂÃÂÃÂÃÂÃÂÃÂÃÂÃÂÃÂÃÂÃÂÃÂÃÂÃÂÃÂÃÂÃÂÃÂÃÂÃÂÃÂÃÂÃÂÃÂÃÂÃÂÃÂÃÂÃÂÃÂÃÂÃÂÃÂÃÂÃÂÃÂÃÂÃÂÃÂÃÂÃÂÃÂÃÂÃÂÃÂÃÂÃÂÃÂÃÂÃÂÃÂÃÂÃÂÃÂÃÂÃÂÃÂ¶rth OttstraÃÂÃÂÃÂÃÂÃÂÃÂÃÂÃÂÃÂÃÂÃÂÃÂÃÂÃÂÃÂÃÂÃÂÃÂÃÂÃÂÃÂÃÂÃÂÃÂÃÂÃÂÃÂÃÂÃÂÃÂÃÂÃÂÃÂÃÂÃÂÃÂÃÂÃÂÃÂÃÂÃÂÃÂÃÂÃÂÃÂÃÂÃÂÃÂÃÂÃÂÃÂÃÂÃÂÃÂÃÂÃÂÃÂÃÂÃÂÃÂÃÂÃÂÃÂÃÂe,-1.2997898320377899,36.81072337831926,,,,P1752,0
de:07334:1752:1:2,WÃÂÃÂÃÂÃÂÃÂÃÂÃÂÃÂÃÂÃÂÃÂÃÂÃÂÃÂÃÂÃÂÃÂÃÂÃÂÃÂÃÂÃÂÃÂÃÂÃÂÃÂÃÂÃÂÃÂÃÂÃÂÃÂÃÂÃÂÃÂÃÂÃÂÃÂÃÂÃÂÃÂÃÂÃÂÃÂÃÂÃÂÃÂÃÂÃÂÃÂÃÂÃÂÃÂÃÂÃÂÃÂÃÂÃÂÃÂÃÂÃÂÃÂÃÂÃÂ¶rth OttstraÃÂÃÂÃÂÃÂÃÂÃÂÃÂÃÂÃÂÃÂÃÂÃÂÃÂÃÂÃÂÃÂÃÂÃÂÃÂÃÂÃÂÃÂÃÂÃÂÃÂÃÂÃÂÃÂÃÂÃÂÃÂÃÂÃÂÃÂÃÂÃÂÃÂÃÂÃÂÃÂÃÂÃÂÃÂÃÂÃÂÃÂÃÂÃÂÃÂÃÂÃÂÃÂÃÂÃÂÃÂÃÂÃÂÃÂÃÂÃÂÃÂÃÂÃÂÃÂe,-1.2894452377153818,36.82742804659703,,,,P1752,0
de:07334:1753:1:1,WÃÂÃÂÃÂÃÂÃÂÃÂÃÂÃÂÃÂÃÂÃÂÃÂÃÂÃÂÃÂÃÂÃÂÃÂÃÂÃÂÃÂÃÂÃÂÃÂÃÂÃÂÃÂÃÂÃÂÃÂÃÂÃÂÃÂÃÂÃÂÃÂÃÂÃÂÃÂÃÂÃÂÃÂÃÂÃÂÃÂÃÂÃÂÃÂÃÂÃÂÃÂÃÂÃÂÃÂÃÂÃÂÃÂÃÂÃÂÃÂÃÂÃÂÃÂÃÂ¶rth Wasserturm,-1.2957958353656638,36.826119439633075,,,,P1753,0
de:07334:1753:1:2,WÃÂÃÂÃÂÃÂÃÂÃÂÃÂÃÂÃÂÃÂÃÂÃÂÃÂÃÂÃÂÃÂÃÂÃÂÃÂÃÂÃÂÃÂÃÂÃÂÃÂÃÂÃÂÃÂÃÂÃÂÃÂÃÂÃÂÃÂÃÂÃÂÃÂÃÂÃÂÃÂÃÂÃÂÃÂÃÂÃÂÃÂÃÂÃÂÃÂÃÂÃÂÃÂÃÂÃÂÃÂÃÂÃÂÃÂÃÂÃÂÃÂÃÂÃÂÃÂ¶rth Wasserturm,-1.2980991209319577,36.8213417945263,,,,P1753,0
de:07334:1754:1:1,WÃÂÃÂÃÂÃÂÃÂÃÂÃÂÃÂÃÂÃÂÃÂÃÂÃÂÃÂÃÂÃÂÃÂÃÂÃÂÃÂÃÂÃÂÃÂÃÂÃÂÃÂÃÂÃÂÃÂÃÂÃÂÃÂÃÂÃÂÃÂÃÂÃÂÃÂÃÂÃÂÃÂÃÂÃÂÃÂÃÂÃÂÃÂÃÂÃÂÃÂÃÂÃÂÃÂÃÂÃÂÃÂÃÂÃÂÃÂÃÂÃÂÃÂÃÂÃÂ¶rth SilcherstraÃÂÃÂÃÂÃÂÃÂÃÂÃÂÃÂÃÂÃÂÃÂÃÂÃÂÃÂÃÂÃÂÃÂÃÂÃÂÃÂÃÂÃÂÃÂÃÂÃÂÃÂÃÂÃÂÃÂÃÂÃÂÃÂÃÂÃÂÃÂÃÂÃÂÃÂÃÂÃÂÃÂÃÂÃÂÃÂÃÂÃÂÃÂÃÂÃÂÃÂÃÂÃÂÃÂÃÂÃÂÃÂÃÂÃÂÃÂÃÂÃÂÃÂÃÂÃÂe,-1.2863373313594557,36.823716835818324,,,,,0
de:07334:1755:1:1,WÃÂÃÂÃÂÃÂÃÂÃÂÃÂÃÂÃÂÃÂÃÂÃÂÃÂÃÂÃÂÃÂÃÂÃÂÃÂÃÂÃÂÃÂÃÂÃÂÃÂÃÂÃÂÃÂÃÂÃÂÃÂÃÂÃÂÃÂÃÂÃÂÃÂÃÂÃÂÃÂÃÂÃÂÃÂÃÂÃÂÃÂÃÂÃÂÃÂÃÂÃÂÃÂÃÂÃÂÃÂÃÂÃÂÃÂÃÂÃÂÃÂÃÂÃÂÃÂ¶rth Richard-Wagner-Str.,-1.2867786033068531,36.81481828509113,,,,P1755,0
de:07334:1762:1:1,Jockgrim BÃÂÃÂÃÂÃÂÃÂÃÂÃÂÃÂÃÂÃÂÃÂÃÂÃÂÃÂÃÂÃÂÃÂÃÂÃÂÃÂÃÂÃÂÃÂÃÂÃÂÃÂÃÂÃÂÃÂÃÂÃÂÃÂÃÂÃÂÃÂÃÂÃÂÃÂÃÂÃÂÃÂÃÂÃÂÃÂÃÂÃÂÃÂÃÂÃÂÃÂÃÂÃÂÃÂÃÂÃÂÃÂÃÂÃÂÃÂÃÂÃÂÃÂÃÂÃÂ¼rgerpark,-1.2979544646877195,36.81972169327786,,,,P1762,0
de:07334:1762:1:92,Jockgrim BÃÂÃÂÃÂÃÂÃÂÃÂÃÂÃÂÃÂÃÂÃÂÃÂÃÂÃÂÃÂÃÂÃÂÃÂÃÂÃÂÃÂÃÂÃÂÃÂÃÂÃÂÃÂÃÂÃÂÃÂÃÂÃÂÃÂÃÂÃÂÃÂÃÂÃÂÃÂÃÂÃÂÃÂÃÂÃÂÃÂÃÂÃÂÃÂÃÂÃÂÃÂÃÂÃÂÃÂÃÂÃÂÃÂÃÂÃÂÃÂÃÂÃÂÃÂÃÂ¼rgerpark,-1.2934430631333997,36.829719475894386,,,,P1762,0
de:07334:32429:0:1,WÃÂÃÂÃÂÃÂÃÂÃÂÃÂÃÂÃÂÃÂÃÂÃÂÃÂÃÂÃÂÃÂÃÂÃÂÃÂÃÂÃÂÃÂÃÂÃÂÃÂÃÂÃÂÃÂÃÂÃÂÃÂÃÂÃÂÃÂÃÂÃÂÃÂÃÂÃÂÃÂÃÂÃÂÃÂÃÂÃÂÃÂÃÂÃÂÃÂÃÂÃÂÃÂÃÂÃÂÃÂÃÂÃÂÃÂÃÂÃÂÃÂÃÂÃÂÃÂ¶rth DorschbergstraÃÂÃÂÃÂÃÂÃÂÃÂÃÂÃÂÃÂÃÂÃÂÃÂÃÂÃÂÃÂÃÂÃÂÃÂÃÂÃÂÃÂÃÂÃÂÃÂÃÂÃÂÃÂÃÂÃÂÃÂÃÂÃÂÃÂÃÂÃÂÃÂÃÂÃÂÃÂÃÂÃÂÃÂÃÂÃÂÃÂÃÂÃÂÃÂÃÂÃÂÃÂÃÂÃÂÃÂÃÂÃÂÃÂÃÂÃÂÃÂÃÂÃÂÃÂÃÂe,-1.2828419360306362,36.81830521548131,,,,P32429,0
de:07334:32429:0:2,WÃÂÃÂÃÂÃÂÃÂÃÂÃÂÃÂÃÂÃÂÃÂÃÂÃÂÃÂÃÂÃÂÃÂÃÂÃÂÃÂÃÂÃÂÃÂÃÂÃÂÃÂÃÂÃÂÃÂÃÂÃÂÃÂÃÂÃÂÃÂÃÂÃÂÃÂÃÂÃÂÃÂÃÂÃÂÃÂÃÂÃÂÃÂÃÂÃÂÃÂÃÂÃÂÃÂÃÂÃÂÃÂÃÂÃÂÃÂÃÂÃÂÃÂÃÂÃÂ¶rth DorschbergstraÃÂÃÂÃÂÃÂÃÂÃÂÃÂÃÂÃÂÃÂÃÂÃÂÃÂÃÂÃÂÃÂÃÂÃÂÃÂÃÂÃÂÃÂÃÂÃÂÃÂÃÂÃÂÃÂÃÂÃÂÃÂÃÂÃÂÃÂÃÂÃÂÃÂÃÂÃÂÃÂÃÂÃÂÃÂÃÂÃÂÃÂÃÂÃÂÃÂÃÂÃÂÃÂÃÂÃÂÃÂÃÂÃÂÃÂÃÂÃÂÃÂÃÂÃÂÃÂe,-1.2851473046576223,36.82041593664529,,,,P32429,0
de:07334:32431:0:1,WÃÂÃÂÃÂÃÂÃÂÃÂÃÂÃÂÃÂÃÂÃÂÃÂÃÂÃÂÃÂÃÂÃÂÃÂÃÂÃÂÃÂÃÂÃÂÃÂÃÂÃÂÃÂÃÂÃÂÃÂÃÂÃÂÃÂÃÂÃÂÃÂÃÂÃÂÃÂÃÂÃÂÃÂÃÂÃÂÃÂÃÂÃÂÃÂÃÂÃÂÃÂÃÂÃÂÃÂÃÂÃÂÃÂÃÂÃÂÃÂÃÂÃÂÃÂÃÂ¶rth Berufsschule,-1.2857402010799988,36.828743730144275,,,,P32431,0
de:07334:32451:1:1,RÃÂÃÂÃÂÃÂÃÂÃÂÃÂÃÂÃÂÃÂÃÂÃÂÃÂÃÂÃÂÃÂÃÂÃÂÃÂÃÂÃÂÃÂÃÂÃÂÃÂÃÂÃÂÃÂÃÂÃÂÃÂÃÂÃÂÃÂÃÂÃÂÃÂÃÂÃÂÃÂÃÂÃÂÃÂÃÂÃÂÃÂÃÂÃÂÃÂÃÂÃÂÃÂÃÂÃÂÃÂÃÂÃÂÃÂÃÂÃÂÃÂÃÂÃÂÃÂ¼lzheim Bf.,-1.2842570890782694,36.811895295977536,,,,P32451,0
de:07334:32451:2:11,RÃÂÃÂÃÂÃÂÃÂÃÂÃÂÃÂÃÂÃÂÃÂÃÂÃÂÃÂÃÂÃÂÃÂÃÂÃÂÃÂÃÂÃÂÃÂÃÂÃÂÃÂÃÂÃÂÃÂÃÂÃÂÃÂÃÂÃÂÃÂÃÂÃÂÃÂÃÂÃÂÃÂÃÂÃÂÃÂÃÂÃÂÃÂÃÂÃÂÃÂÃÂÃÂÃÂÃÂÃÂÃÂÃÂÃÂÃÂÃÂÃÂÃÂÃÂÃÂ¼lzheim Bahnhof,-1.2899424946958755,36.816261962203434,,,,P32451,0
de:07334:32451:2:92,RÃÂÃÂÃÂÃÂÃÂÃÂÃÂÃÂÃÂÃÂÃÂÃÂÃÂÃÂÃÂÃÂÃÂÃÂÃÂÃÂÃÂÃÂÃÂÃÂÃÂÃÂÃÂÃÂÃÂÃÂÃÂÃÂÃÂÃÂÃÂÃÂÃÂÃÂÃÂÃÂÃÂÃÂÃÂÃÂÃÂÃÂÃÂÃÂÃÂÃÂÃÂÃÂÃÂÃÂÃÂÃÂÃÂÃÂÃÂÃÂÃÂÃÂÃÂÃÂ¼lzheim Bahnhof,-1.299210848127386,36.81446735287986,,,,P32451,0
de:07334:32451:4:2,RÃÂÃÂÃÂÃÂÃÂÃÂÃÂÃÂÃÂÃÂÃÂÃÂÃÂÃÂÃÂÃÂÃÂÃÂÃÂÃÂÃÂÃÂÃÂÃÂÃÂÃÂÃÂÃÂÃÂÃÂÃÂÃÂÃÂÃÂÃÂÃÂÃÂÃÂÃÂÃÂÃÂÃÂÃÂÃÂÃÂÃÂÃÂÃÂÃÂÃÂÃÂÃÂÃÂÃÂÃÂÃÂÃÂÃÂÃÂÃÂÃÂÃÂÃÂÃÂ¼lzheim Bf.,-1.298208285272633,36.819333943359354,,,,P32451,0
de:07334:32627:0:1,Sondernheim Willi-Gutting-Str.,-1.2987934755161183,36.824625600479635,,,,P32627,0
de:07334:32627:0:2,Sondernheim Willi-Gutting-Str.,-1.2818747857512836,36.81950845918083,,,,P32627,0
de:07334:32636:0:1,Germersheim Wasserturm,-1.2838744282016707,36.827472020634694,,,,P32636,0
de:07334:32636:0:2,Germersheim Wasserturm,-1.2869885785887396,36.818802215856984,,,,P32636,0
de:07334:32637:1:3,Germersheim,-1.2881385662335605,36.818700814883044,,,,P32637,0
de:07334:32637:2:11,Germersheim Bahnhof,-1.2869232705862013,36.819432140465565,,,,P32637,0
de:07334:32637:2:13,Germersheim Bahnhof,-1.2834319007347212,36.82385021687922,,,,P32637,0
de:07334:32660:1:1,Bellheim Bf.,-1.2847355216693492,36.82211729731915,,,,P32660,0
de:07334:32660:2:11,Bellheim Bahnhof,-1.2922040936616157,36.82761979104973,,,,P32660,0
de:07334:32660:4:2,Bellheim Bf.,-1.2866756966836155,36.81406692583658,,,,P32660,0
de:07334:35002:1:1,Sondernheim,-1.2815126166413404,36.81561719908636,,,,P35002,0
de:07334:35002:4:2,Sondernheim,-1.2831515588761726,36.820780083378736,,,,P35002,0
de:07334:35003:1:1,Rheinzabern Bf.,-1.2850926613232845,36.81145008736962,,,,P35003,0
de:07334:35003:3:11,Rheinzabern,-1.2833313915938693,36.81485338216287,,,,P35003,0
de:07334:35003:3:12,Rheinzabern,-1.2923256736186701,36.81575256715719,,,,P35003,0
de:07334:35003:4:2,Rheinzabern Bf.,-1.2904724374490812,36.82375595079309,,,,P35003,0
de:07334:35004:1:1,Jockgrim Bf.,-1.2937299915323308,36.819719503443544,,,,P35004,0
de:07334:35004:3:91,Jockgrim Bahnhof (Ersatzhalt),-1.2839093629027876,36.82481859340972,,,,P35004,0
de:07334:35004:4:2,Jockgrim Bf.,-1.2843175791807457,36.81205012506286,,,,P35004,0
de:08115:4510:1:2,Bondorf (b. Herrenberg),-1.2974546060658978,36.82934008826794,,,,P39043,0
de:08115:4510:1:3,Bondorf (b. Herrenberg),-1.2919680229686346,36.81256394132883,,,,P39043,0
de:08115:4510:2:1,Bondorf (b. Herrenberg),-1.2867662898401846,36.81133069811187,,,,P39043,0
de:08115:4510:3:3,Bondorf Bahnhof,-1.2930950262944578,36.81142442711188,,,,P39043,0
de:08115:4512:2:1,Herrenberg,-1.2811639370475398,36.82184180100313,,,,P81024,0
de:08115:4512:4:101,Herrenberg,-1.2866858050263812,36.825434971333536,,,,P81024,0
de:08115:4512:5:12,Herrenberg ZOB,-1.2863928295167677,36.829755787364434,,,,P81024,0
de:08115:4512:5:A,Herrenberg ZOB,-1.2802358794594164,36.81769968348563,,,,P81024,0
de:08115:4745:1:3,Nebringen Postamt,-1.2972390109766718,36.82569574892426,,,,P39046,0
de:08115:4745:1:4,Nebringen Postamt,-1.2857337813108107,36.82151083078558,,,,P39046,0
de:08115:5776:1:1,GÃÂÃÂÃÂÃÂÃÂÃÂÃÂÃÂÃÂÃÂÃÂÃÂÃÂÃÂÃÂÃÂÃÂÃÂÃÂÃÂÃÂÃÂÃÂÃÂÃÂÃÂÃÂÃÂÃÂÃÂÃÂÃÂÃÂÃÂÃÂÃÂÃÂÃÂÃÂÃÂÃÂÃÂÃÂÃÂÃÂÃÂÃÂÃÂÃÂÃÂÃÂÃÂÃÂÃÂÃÂÃÂÃÂÃÂÃÂÃÂÃÂÃÂÃÂÃÂ¤ufelden,-1.2843247618869356,36.817334595302796,,,,P39044,0
de:08115:5776:1:2,GÃÂÃÂÃÂÃÂÃÂÃÂÃÂÃÂÃÂÃÂÃÂÃÂÃÂÃÂÃÂÃÂÃÂÃÂÃÂÃÂÃÂÃÂÃÂÃÂÃÂÃÂÃÂÃÂÃÂÃÂÃÂÃÂÃÂÃÂÃÂÃÂÃÂÃÂÃÂÃÂÃÂÃÂÃÂÃÂÃÂÃÂÃÂÃÂÃÂÃÂÃÂÃÂÃÂÃÂÃÂÃÂÃÂÃÂÃÂÃÂÃÂÃÂÃÂÃÂ¤ufelden,-1.290214844238926,36.819212698823755,,,,P39044,0
de:08121:1113:0:10,Heilbronn Hbf Busbahnhof,-1.2989345903631082,36.81310396866968,,,,P35085,0
de:08121:1114:1,Heilbronn Hbf Busbahnhof,-1.2889547002856347,36.81588656185448,,,,P35085,0
de:08121:1114:3:1,Heilbronn Hbf/Willy-Brandt-Platz,-1.2920191631538767,36.81994959568645,,,,P35085,0
de:08121:1114:3:2,Heilbronn Hbf/Willy-Brandt-Platz,-1.2887894424493493,36.819461354355624,,,,P35085,0
de:08121:1123:1:Konze,Heilbronn Harmonie (Ersatzhalt),-1.2967749952355347,36.817471811742884,,,,P1588,0
de:08121:1123:1:Moltk,Heilbronn Harmonie (Ersatzhalt),-1.2995878400155036,36.828983594421175,,,,P1588,0
de:08121:1123:91:1,Heilbronn Harmonie,-1.2998402459498393,36.81856864815843,,,,P1588,0
de:08121:1123:91:2,Heilbronn Harmonie,-1.2936845792830542,36.81880699234558,,,,P1588,0
de:08121:137:1:0,Heilbronn Neckarturm,-1.2906052644751362,36.8237584206665,,,,P1586,0
de:08121:137:1:1,Heilbronn Neckarturm,-1.280460345824636,36.81846354564833,,,,P1586,0
de:08121:137:2:2,Heilbronn Neckar-Turm,-1.2830031521128737,36.81143092655462,,,,P1586,0
de:08121:137:3:1,Heilbronn Neckar-Turm,-1.29366494272181,36.82574361600298,,,,P1586,0
de:08121:173:1:1,Heilbronn PfÃÂÃÂÃÂÃÂÃÂÃÂÃÂÃÂÃÂÃÂÃÂÃÂÃÂÃÂÃÂÃÂÃÂÃÂÃÂÃÂÃÂÃÂÃÂÃÂÃÂÃÂÃÂÃÂÃÂÃÂÃÂÃÂÃÂÃÂÃÂÃÂÃÂÃÂÃÂÃÂÃÂÃÂÃÂÃÂÃÂÃÂÃÂÃÂÃÂÃÂÃÂÃÂÃÂÃÂÃÂÃÂÃÂÃÂÃÂÃÂÃÂÃÂÃÂÃÂ¼hlpark,-1.282679726976257,36.8202168362758,,,,P1593,0
de:08121:173:2:2,Heilbronn PfÃÂÃÂÃÂÃÂÃÂÃÂÃÂÃÂÃÂÃÂÃÂÃÂÃÂÃÂÃÂÃÂÃÂÃÂÃÂÃÂÃÂÃÂÃÂÃÂÃÂÃÂÃÂÃÂÃÂÃÂÃÂÃÂÃÂÃÂÃÂÃÂÃÂÃÂÃÂÃÂÃÂÃÂÃÂÃÂÃÂÃÂÃÂÃÂÃÂÃÂÃÂÃÂÃÂÃÂÃÂÃÂÃÂÃÂÃÂÃÂÃÂÃÂÃÂÃÂ¼hlpark,-1.290945822210814,36.823291945153166,,,,P1593,0
de:08121:173:5:0,Heilbronn PfÃÂÃÂÃÂÃÂÃÂÃÂÃÂÃÂÃÂÃÂÃÂÃÂÃÂÃÂÃÂÃÂÃÂÃÂÃÂÃÂÃÂÃÂÃÂÃÂÃÂÃÂÃÂÃÂÃÂÃÂÃÂÃÂÃÂÃÂÃÂÃÂÃÂÃÂÃÂÃÂÃÂÃÂÃÂÃÂÃÂÃÂÃÂÃÂÃÂÃÂÃÂÃÂÃÂÃÂÃÂÃÂÃÂÃÂÃÂÃÂÃÂÃÂÃÂÃÂ¼hlpark,-1.2879964501226595,36.8172840101438,,,,P1593,0
de:08121:173:5:1,Heilbronn PfÃÂÃÂÃÂÃÂÃÂÃÂÃÂÃÂÃÂÃÂÃÂÃÂÃÂÃÂÃÂÃÂÃÂÃÂÃÂÃÂÃÂÃÂÃÂÃÂÃÂÃÂÃÂÃÂÃÂÃÂÃÂÃÂÃÂÃÂÃÂÃÂÃÂÃÂÃÂÃÂÃÂÃÂÃÂÃÂÃÂÃÂÃÂÃÂÃÂÃÂÃÂÃÂÃÂÃÂÃÂÃÂÃÂÃÂÃÂÃÂÃÂÃÂÃÂÃÂ¼hlpark,-1.2886337485019865,36.82451405746192,,,,P1593,0
de:08121:2000:1:3,BÃÂÃÂÃÂÃÂÃÂÃÂÃÂÃÂÃÂÃÂÃÂÃÂÃÂÃÂÃÂÃÂÃÂÃÂÃÂÃÂÃÂÃÂÃÂÃÂÃÂÃÂÃÂÃÂÃÂÃÂÃÂÃÂÃÂÃÂÃÂÃÂÃÂÃÂÃÂÃÂÃÂÃÂÃÂÃÂÃÂÃÂÃÂÃÂÃÂÃÂÃÂÃÂÃÂÃÂÃÂÃÂÃÂÃÂÃÂÃÂÃÂÃÂÃÂÃÂ¶ckingen Berufsschulzentrum,-1.2840458506902879,36.81383011181349,,,,P1580,0
de:08121:2000:2:4,BÃÂÃÂÃÂÃÂÃÂÃÂÃÂÃÂÃÂÃÂÃÂÃÂÃÂÃÂÃÂÃÂÃÂÃÂÃÂÃÂÃÂÃÂÃÂÃÂÃÂÃÂÃÂÃÂÃÂÃÂÃÂÃÂÃÂÃÂÃÂÃÂÃÂÃÂÃÂÃÂÃÂÃÂÃÂÃÂÃÂÃÂÃÂÃÂÃÂÃÂÃÂÃÂÃÂÃÂÃÂÃÂÃÂÃÂÃÂÃÂÃÂÃÂÃÂÃÂ¶ckingen Berufsschulzentrum,-1.288425167618178,36.812533123693484,,,,P1580,0
de:08121:2001:1:1,BÃÂÃÂÃÂÃÂÃÂÃÂÃÂÃÂÃÂÃÂÃÂÃÂÃÂÃÂÃÂÃÂÃÂÃÂÃÂÃÂÃÂÃÂÃÂÃÂÃÂÃÂÃÂÃÂÃÂÃÂÃÂÃÂÃÂÃÂÃÂÃÂÃÂÃÂÃÂÃÂÃÂÃÂÃÂÃÂÃÂÃÂÃÂÃÂÃÂÃÂÃÂÃÂÃÂÃÂÃÂÃÂÃÂÃÂÃÂÃÂÃÂÃÂÃÂÃÂ¶ckingen West,-1.286703249198936,36.81537663945697,,,,P1581,0
de:08121:2001:2:2,BÃÂÃÂÃÂÃÂÃÂÃÂÃÂÃÂÃÂÃÂÃÂÃÂÃÂÃÂÃÂÃÂÃÂÃÂÃÂÃÂÃÂÃÂÃÂÃÂÃÂÃÂÃÂÃÂÃÂÃÂÃÂÃÂÃÂÃÂÃÂÃÂÃÂÃÂÃÂÃÂÃÂÃÂÃÂÃÂÃÂÃÂÃÂÃÂÃÂÃÂÃÂÃÂÃÂÃÂÃÂÃÂÃÂÃÂÃÂÃÂÃÂÃÂÃÂÃÂ¶ckingen West,-1.2991996892068756,36.82125412842439,,,,P1581,0
de:08121:23:90:1,Heilbronn Harmonie/Kunsthalle,-1.2908460262518562,36.829007170565696,,,,P1605,0
de:08121:24:2:2,HN Harmonie/Hafenmarktpass.,-1.2947237215543692,36.82063042050837,,,,P1646,0
de:08121:24:90:1,HN Harmonie/Hafenmarktpass.,-1.2969855941507562,36.819383860331776,,,,P1646,0
de:08121:26:1:1,Heilbronn Hbf,-1.2946009370794769,36.818369429102226,,,,P32619,0
de:08121:3032:1:1,Heilbronn Friedensplatz,-1.2875880055703561,36.82252588341846,,,,P1592,0
de:08121:3032:2:2,Heilbronn Friedensplatz,-1.2867172882858138,36.81460677945266,,,,P1592,0
de:08121:3032:4:0,Heilbronn Friedensplatz,-1.286514006826823,36.82659629361637,,,,P1592,0
de:08121:3032:4:1,Heilbronn Friedensplatz,-1.2970718661357017,36.81477621840098,,,,P1592,0
de:08121:3033:1:1,Heilbronn Finanzamt,-1.2948744692664607,36.81631518123187,,,,P1594,0
de:08121:3033:2:2,Heilbronn Finanzamt,-1.2918625130287793,36.826645066979964,,,,P1594,0
de:08121:3033:4:0,Heilbronn Finanzamt,-1.2955770310108052,36.82251168029336,,,,P1594,0
de:08121:3033:4:1,Heilbronn Finanzamt,-1.2980087882834486,36.82977752536732,,,,P1594,0
de:08121:31001:1:1,Heilbronn Techn. Schulzentrum,-1.2918811058800816,36.822585771452644,,,,P1629,0
de:08121:31001:1:2,Heilbronn Techn. Schulzentrum,-1.2954871983321095,36.81944379316009,,,,P1629,0
de:08121:31002:1:1,Heilbronn Theater,-1.2923443554852176,36.82195475273403,,,,P1628,0
de:08121:31002:1:2,Heilbronn Theater,-1.2863314811341637,36.820702852738,,,,P1628,0
de:08121:31003:1:1,Heilbronn Industrieplatz,-1.2938731906487992,36.82820627992985,,,,P1645,0
de:08121:31003:1:2,Heilbronn Industrieplatz,-1.280411070206971,36.82394969871681,,,,P1645,0
de:08121:31004:1:1,Heilbronn Hans-RieÃÂÃÂÃÂÃÂÃÂÃÂÃÂÃÂÃÂÃÂÃÂÃÂÃÂÃÂÃÂÃÂÃÂÃÂÃÂÃÂÃÂÃÂÃÂÃÂÃÂÃÂÃÂÃÂÃÂÃÂÃÂÃÂÃÂÃÂÃÂÃÂÃÂÃÂÃÂÃÂÃÂÃÂÃÂÃÂÃÂÃÂÃÂÃÂÃÂÃÂÃÂÃÂÃÂÃÂÃÂÃÂÃÂÃÂÃÂÃÂÃÂÃÂÃÂÃÂer-StraÃÂÃÂÃÂÃÂÃÂÃÂÃÂÃÂÃÂÃÂÃÂÃÂÃÂÃÂÃÂÃÂÃÂÃÂÃÂÃÂÃÂÃÂÃÂÃÂÃÂÃÂÃÂÃÂÃÂÃÂÃÂÃÂÃÂÃÂÃÂÃÂÃÂÃÂÃÂÃÂÃÂÃÂÃÂÃÂÃÂÃÂÃÂÃÂÃÂÃÂÃÂÃÂÃÂÃÂÃÂÃÂÃÂÃÂÃÂÃÂÃÂÃÂÃÂÃÂe,-1.2973695229829287,36.81435326522854,,,,P1613,0
de:08121:31004:1:2,Heilbronn Hans-RieÃÂÃÂÃÂÃÂÃÂÃÂÃÂÃÂÃÂÃÂÃÂÃÂÃÂÃÂÃÂÃÂÃÂÃÂÃÂÃÂÃÂÃÂÃÂÃÂÃÂÃÂÃÂÃÂÃÂÃÂÃÂÃÂÃÂÃÂÃÂÃÂÃÂÃÂÃÂÃÂÃÂÃÂÃÂÃÂÃÂÃÂÃÂÃÂÃÂÃÂÃÂÃÂÃÂÃÂÃÂÃÂÃÂÃÂÃÂÃÂÃÂÃÂÃÂÃÂer-StraÃÂÃÂÃÂÃÂÃÂÃÂÃÂÃÂÃÂÃÂÃÂÃÂÃÂÃÂÃÂÃÂÃÂÃÂÃÂÃÂÃÂÃÂÃÂÃÂÃÂÃÂÃÂÃÂÃÂÃÂÃÂÃÂÃÂÃÂÃÂÃÂÃÂÃÂÃÂÃÂÃÂÃÂÃÂÃÂÃÂÃÂÃÂÃÂÃÂÃÂÃÂÃÂÃÂÃÂÃÂÃÂÃÂÃÂÃÂÃÂÃÂÃÂÃÂÃÂe,-1.292306058124262,36.815144776567664,,,,P1613,0
de:08121:31501:1:1,Heilbronn Kaufland,-1.2881946187017081,36.815100286118344,,,,P1606,0
de:08121:31501:1:2,Heilbronn Kaufland,-1.296301861235598,36.82505592913907,,,,P1606,0
de:08121:55:1:0,Heilbronn Rathaus,-1.288682459196317,36.82165620249357,,,,P1587,0
de:08121:55:1:1,Heilbronn Rathaus,-1.2980488052652206,36.8176781462431,,,,P1587,0
de:08121:55:2:2,Heilbronn Rathaus,-1.2942072270713492,36.82242471416422,,,,P1587,0
de:08121:55:3:1,Heilbronn Rathaus,-1.2990888249631283,36.813026308069404,,,,P1587,0
de:08121:59:0:0,BÃÂÃÂÃÂÃÂÃÂÃÂÃÂÃÂÃÂÃÂÃÂÃÂÃÂÃÂÃÂÃÂÃÂÃÂÃÂÃÂÃÂÃÂÃÂÃÂÃÂÃÂÃÂÃÂÃÂÃÂÃÂÃÂÃÂÃÂÃÂÃÂÃÂÃÂÃÂÃÂÃÂÃÂÃÂÃÂÃÂÃÂÃÂÃÂÃÂÃÂÃÂÃÂÃÂÃÂÃÂÃÂÃÂÃÂÃÂÃÂÃÂÃÂÃÂÃÂ¶ckingen Sandhof,-1.287963867542506,36.82899360187334,,,,P30590,0
de:08121:59:0:1,BÃÂÃÂÃÂÃÂÃÂÃÂÃÂÃÂÃÂÃÂÃÂÃÂÃÂÃÂÃÂÃÂÃÂÃÂÃÂÃÂÃÂÃÂÃÂÃÂÃÂÃÂÃÂÃÂÃÂÃÂÃÂÃÂÃÂÃÂÃÂÃÂÃÂÃÂÃÂÃÂÃÂÃÂÃÂÃÂÃÂÃÂÃÂÃÂÃÂÃÂÃÂÃÂÃÂÃÂÃÂÃÂÃÂÃÂÃÂÃÂÃÂÃÂÃÂÃÂ¶ckingen Sandhof,-1.2930175625447486,36.82285107431788,,,,P30590,0
de:08121:75:3:2,Heilbronn SÃÂÃÂÃÂÃÂÃÂÃÂÃÂÃÂÃÂÃÂÃÂÃÂÃÂÃÂÃÂÃÂÃÂÃÂÃÂÃÂÃÂÃÂÃÂÃÂÃÂÃÂÃÂÃÂÃÂÃÂÃÂÃÂÃÂÃÂÃÂÃÂÃÂÃÂÃÂÃÂÃÂÃÂÃÂÃÂÃÂÃÂÃÂÃÂÃÂÃÂÃÂÃÂÃÂÃÂÃÂÃÂÃÂÃÂÃÂÃÂÃÂÃÂÃÂÃÂ¼lmertor,-1.296736286265042,36.81907365989731,,,,P1590,0
de:08121:77:3,BÃÂÃÂÃÂÃÂÃÂÃÂÃÂÃÂÃÂÃÂÃÂÃÂÃÂÃÂÃÂÃÂÃÂÃÂÃÂÃÂÃÂÃÂÃÂÃÂÃÂÃÂÃÂÃÂÃÂÃÂÃÂÃÂÃÂÃÂÃÂÃÂÃÂÃÂÃÂÃÂÃÂÃÂÃÂÃÂÃÂÃÂÃÂÃÂÃÂÃÂÃÂÃÂÃÂÃÂÃÂÃÂÃÂÃÂÃÂÃÂÃÂÃÂÃÂÃÂ¶ckingen Sonnenbr./Eisenbahnmus.,-1.2853294523289787,36.82688260932895,,,,P30591,0
de:08121:77:90:2,BÃÂÃÂÃÂÃÂÃÂÃÂÃÂÃÂÃÂÃÂÃÂÃÂÃÂÃÂÃÂÃÂÃÂÃÂÃÂÃÂÃÂÃÂÃÂÃÂÃÂÃÂÃÂÃÂÃÂÃÂÃÂÃÂÃÂÃÂÃÂÃÂÃÂÃÂÃÂÃÂÃÂÃÂÃÂÃÂÃÂÃÂÃÂÃÂÃÂÃÂÃÂÃÂÃÂÃÂÃÂÃÂÃÂÃÂÃÂÃÂÃÂÃÂÃÂÃÂ¶ckingen Sonnenbrunnen,-1.2817415519865987,36.81375287557198,,,,P30591,0
de:08121:77:91:1,BÃÂÃÂÃÂÃÂÃÂÃÂÃÂÃÂÃÂÃÂÃÂÃÂÃÂÃÂÃÂÃÂÃÂÃÂÃÂÃÂÃÂÃÂÃÂÃÂÃÂÃÂÃÂÃÂÃÂÃÂÃÂÃÂÃÂÃÂÃÂÃÂÃÂÃÂÃÂÃÂÃÂÃÂÃÂÃÂÃÂÃÂÃÂÃÂÃÂÃÂÃÂÃÂÃÂÃÂÃÂÃÂÃÂÃÂÃÂÃÂÃÂÃÂÃÂÃÂ¶ckingen Sonnenbrunnen,-1.2838392743597262,36.81780432635921,,,,P30591,0
de:08121:8170:1:1,Heilbronn Trappensee,-1.2872902841506115,36.81099276837262,,,,P1595,0
de:08121:8170:2:2,Heilbronn Trappensee,-1.2818924446717634,36.825005448616515,,,,P1595,0
de:08125:1023:2:1,Eschenau (b. Heilbronn),-1.2805758395003333,36.819402345932524,,,,P1575,0
de:08125:1023:3:2,Eschenau (b. Heilbronn),-1.2968062232145097,36.824690907500724,,,,P1575,0
de:08125:1110:1:3,Eppingen West,-1.2867859122873477,36.82515797469121,278.0,,,P1569,0
de:08125:1110:1:4,Eppingen West,-1.2995421849620117,36.82781774620496,278.0,,,P1569,0
de:08125:1110:2:1,Eppingen West,-1.2829629839035392,36.822538856958445,278.0,,,P1569,0
de:08125:1110:90:2,Eppingen West,-1.2880305369292386,36.82240903653826,278.0,,,P1569,0
de:08125:1120:2:1,Bad Friedrichshall-Kochendorf,-1.2986688304957195,36.81328968342403,,,,P1610,0
de:08125:1120:2:2,Bad Friedrichshall-Kochendorf,-1.287985295829191,36.828545182494224,,,,P1610,0
de:08125:1565:1:1,Wieslensdorf,-1.296015987964042,36.81193194511616,,,,P1565,0
de:08125:1565:2:2,Wieslensdorf,-1.2926421402276573,36.818479681559175,,,,P1565,0
de:08125:1598:1:1,Weinsberg/Ellhofen Gewerbegebiet,-1.2881314982656238,36.8167004321159,,,,P1598,0
de:08125:1598:2:2,Weinsberg/Ellhofen Gewerbegebiet,-1.2914331945366548,36.81446890144306,,,,P1598,0
de:08125:1630:1:1,Bad Rappenau Kurpark,-1.2821004056419796,36.82586347053686,,,,,0
de:08125:1700:2:1,Stetten am Heuchelberg,-1.291570341013549,36.8238690097712,,,,P34814,0
de:08125:1700:2:2,Stetten am Heuchelberg,-1.280892522561672,36.81658982262205,,,,P34814,0
de:08125:1705:1:2,Schwaigern West,-1.28558431473892,36.828737019737225,,,,P1583,0
de:08125:1705:2,Schwaigern West,-1.2983510706693484,36.81968243030205,,,,P1583,0
de:08125:1800:1:1,Schwaigern Heilbronner Str. (Ersatz),-1.293732738378351,36.81715481449227,,,,,0
de:08125:1801:1:1,Leingarten AllmandstraÃÂÃÂÃÂÃÂÃÂÃÂÃÂÃÂÃÂÃÂÃÂÃÂÃÂÃÂÃÂÃÂÃÂÃÂÃÂÃÂÃÂÃÂÃÂÃÂÃÂÃÂÃÂÃÂÃÂÃÂÃÂÃÂÃÂÃÂÃÂÃÂÃÂÃÂÃÂÃÂÃÂÃÂÃÂÃÂÃÂÃÂÃÂÃÂÃÂÃÂÃÂÃÂÃÂÃÂÃÂÃÂÃÂÃÂÃÂÃÂÃÂÃÂÃÂÃÂe (Ersatzhalt),-1.2961426743829076,36.82004026199119,,,,,0
de:08125:1939:1:1,Weinsberg West,-1.2857518163626465,36.81161876905791,,,,P1596,0
de:08125:1939:2:0,Weinsberg West,-1.2811527970442826,36.81387472062204,,,,P1596,0
de:08125:2002:1:1,Bad Wimpfen,-1.2975212432824899,36.8116569479054,,,,P1614,0
de:08125:2003:2:2,Ellhofen,-1.2833642019960085,36.829338331718674,,,,P1599,0
de:08125:2003:3:1,Ellhofen,-1.2992117678718575,36.8162701672847,,,,P1599,0
de:08125:2004:1:1,SÃÂÃÂÃÂÃÂÃÂÃÂÃÂÃÂÃÂÃÂÃÂÃÂÃÂÃÂÃÂÃÂÃÂÃÂÃÂÃÂÃÂÃÂÃÂÃÂÃÂÃÂÃÂÃÂÃÂÃÂÃÂÃÂÃÂÃÂÃÂÃÂÃÂÃÂÃÂÃÂÃÂÃÂÃÂÃÂÃÂÃÂÃÂÃÂÃÂÃÂÃÂÃÂÃÂÃÂÃÂÃÂÃÂÃÂÃÂÃÂÃÂÃÂÃÂÃÂ¼lzbach,-1.2888169896573245,36.8245461095967,,,,P1570,0
de:08125:2004:2:2,SÃÂÃÂÃÂÃÂÃÂÃÂÃÂÃÂÃÂÃÂÃÂÃÂÃÂÃÂÃÂÃÂÃÂÃÂÃÂÃÂÃÂÃÂÃÂÃÂÃÂÃÂÃÂÃÂÃÂÃÂÃÂÃÂÃÂÃÂÃÂÃÂÃÂÃÂÃÂÃÂÃÂÃÂÃÂÃÂÃÂÃÂÃÂÃÂÃÂÃÂÃÂÃÂÃÂÃÂÃÂÃÂÃÂÃÂÃÂÃÂÃÂÃÂÃÂÃÂ¼lzbach,-1.283451130844331,36.82417287000803,,,,P1570,0
de:08125:2005:1:1,SÃÂÃÂÃÂÃÂÃÂÃÂÃÂÃÂÃÂÃÂÃÂÃÂÃÂÃÂÃÂÃÂÃÂÃÂÃÂÃÂÃÂÃÂÃÂÃÂÃÂÃÂÃÂÃÂÃÂÃÂÃÂÃÂÃÂÃÂÃÂÃÂÃÂÃÂÃÂÃÂÃÂÃÂÃÂÃÂÃÂÃÂÃÂÃÂÃÂÃÂÃÂÃÂÃÂÃÂÃÂÃÂÃÂÃÂÃÂÃÂÃÂÃÂÃÂÃÂ¼lzbach Schule,-1.2871089965328377,36.827368450439785,,,,P1571,0
de:08125:2005:2:2,SÃÂÃÂÃÂÃÂÃÂÃÂÃÂÃÂÃÂÃÂÃÂÃÂÃÂÃÂÃÂÃÂÃÂÃÂÃÂÃÂÃÂÃÂÃÂÃÂÃÂÃÂÃÂÃÂÃÂÃÂÃÂÃÂÃÂÃÂÃÂÃÂÃÂÃÂÃÂÃÂÃÂÃÂÃÂÃÂÃÂÃÂÃÂÃÂÃÂÃÂÃÂÃÂÃÂÃÂÃÂÃÂÃÂÃÂÃÂÃÂÃÂÃÂÃÂÃÂ¼lzbach Schule,-1.2813239950876816,36.81053292479358,,,,P1571,0
de:08125:2017:1:1,Willsbach,-1.2924497404178708,36.82429243906542,,,,P1573,0
de:08125:2017:2:2,Willsbach,-1.286867070019058,36.81164044978447,,,,P1573,0
de:08125:2032:2:1,Affaltrach,-1.2905334489455682,36.82095201962457,,,,P1574,0
de:08125:2032:4:2,Affaltrach,-1.2861185626810447,36.81759972704318,,,,P1574,0
de:08125:31502:1:1,Neckarsulm SÃÂÃÂÃÂÃÂÃÂÃÂÃÂÃÂÃÂÃÂÃÂÃÂÃÂÃÂÃÂÃÂÃÂÃÂÃÂÃÂÃÂÃÂÃÂÃÂÃÂÃÂÃÂÃÂÃÂÃÂÃÂÃÂÃÂÃÂÃÂÃÂÃÂÃÂÃÂÃÂÃÂÃÂÃÂÃÂÃÂÃÂÃÂÃÂÃÂÃÂÃÂÃÂÃÂÃÂÃÂÃÂÃÂÃÂÃÂÃÂÃÂÃÂÃÂÃÂ¼d,-1.2934331331160818,36.826290762809386,,,,P1607,0
de:08125:31502:1:2,Neckarsulm SÃÂÃÂÃÂÃÂÃÂÃÂÃÂÃÂÃÂÃÂÃÂÃÂÃÂÃÂÃÂÃÂÃÂÃÂÃÂÃÂÃÂÃÂÃÂÃÂÃÂÃÂÃÂÃÂÃÂÃÂÃÂÃÂÃÂÃÂÃÂÃÂÃÂÃÂÃÂÃÂÃÂÃÂÃÂÃÂÃÂÃÂÃÂÃÂÃÂÃÂÃÂÃÂÃÂÃÂÃÂÃÂÃÂÃÂÃÂÃÂÃÂÃÂÃÂÃÂ¼d,-1.2853486925137156,36.81273844884478,,,,P1607,0
de:08125:31503:1:1,Neckarsulm Mitte,-1.2943652633158391,36.81672007988291,,,,P1608,0
de:08125:31503:1:2,Neckarsulm Mitte,-1.2965692793171921,36.821444752092766,,,,P1608,0
de:08125:31504:1:1,Neckarsulm Nord,-1.283501637570444,36.81895756735393,,,,P1609,0
de:08125:31504:1:2,Neckarsulm Nord,-1.2997568594773434,36.822390897581116,,,,P1609,0
de:08125:33415,Elsenz FreudenhÃÂÃÂÃÂÃÂÃÂÃÂÃÂÃÂÃÂÃÂÃÂÃÂÃÂÃÂÃÂÃÂÃÂÃÂÃÂÃÂÃÂÃÂÃÂÃÂÃÂÃÂÃÂÃÂÃÂÃÂÃÂÃÂÃÂÃÂÃÂÃÂÃÂÃÂÃÂÃÂÃÂÃÂÃÂÃÂÃÂÃÂÃÂÃÂÃÂÃÂÃÂÃÂÃÂÃÂÃÂÃÂÃÂÃÂÃÂÃÂÃÂÃÂÃÂÃÂ¤lde,-1.2920594521686921,36.81204173334768,278.0,,,P13415,0
de:08125:3900:1,Gemmingen,-1.2992675197351362,36.82733818825266,,,,P34811,0
de:08125:3900:2:1,Gemmingen,-1.28257923691916,36.82683579191988,,,,P34811,0
de:08125:3900:2:2,Gemmingen,-1.2915388644958652,36.82306594855449,,,,P34811,0
de:08125:4344:1:1,Weinsberg,-1.2992612268052586,36.82073029263871,,,,P1597,0
de:08125:4344:1:2,Weinsberg,-1.290543669522545,36.82680645262369,,,,P1597,0
de:08125:4391:1:1,Schwaigern Ost,-1.2952181104466192,36.82236266752521,,,,P1584,0
de:08125:4402,Leingarten Kirche,-1.2839162614383037,36.827700254882686,,,,P30584,0
de:08125:4405:1:1,Gemmingen West,-1.2854118883538708,36.810939019361214,,,,P1582,0
de:08125:4405:5:51,Gemmingen West,-1.2968751069680007,36.81707026323595,,,,P1582,0
de:08125:4557:1:1,Offenau,-1.2900128300310287,36.826769201013775,,,,P1636,0
de:08125:4557:2:1,Offenau,-1.288055225987032,36.82203702153228,,,,P1636,0
de:08125:4557:3:2,Offenau,-1.29713477711426,36.82307661462638,,,,P1636,0
de:08125:4569:1:ohne,Gundelsheim (Neckar),-1.2963095276950933,36.82083958823189,,,,P1637,0
de:08125:4569:2:1,Gundelsheim (Neckar),-1.2839615132256776,36.825055273436725,,,,P1637,0
de:08125:4569:4:2,Gundelsheim (Neckar),-1.2856353792957356,36.81158555586335,,,,P1637,0
de:08125:4595:1:1,Bad Wimpfen Im Tal,-1.2925530014039577,36.81944533010476,,,,P1612,0
de:08125:4615:1:1,Bad Rappenau,-1.2989111724423592,36.82903858059143,,,,P1631,0
de:08125:4615:1:9,Bad Rappenau,-1.2857563103663416,36.82446288647286,,,,P1631,0
de:08125:4615:2:1,Bad Rappenau,-1.2896719103199266,36.81605696747918,,,,P1631,0
de:08125:4615:5:2,Bad Rappenau,-1.291278709411842,36.827416735402124,,,,P1631,0
de:08125:519:1:2,Bad Friedrichshall Hbf,-1.2991402566502324,36.82796132632685,,,,P1476,0
de:08125:519:1:20,Bad Friedrichshall Hbf,-1.2934608743735327,36.81054378028682,,,,P1476,0
de:08125:519:3:3,Bad Friedrichshall Hbf,-1.2985160064362158,36.8108247856859,,,,P1476,0
de:08125:5404:1:1,Eppingen,-1.284170568353296,36.826596579740354,278.0,,,P32094,0
de:08125:5404:2:Mast1,Eppingen Bahnhof,-1.2915922424470099,36.82387687691409,278.0,,,P32094,0
de:08125:5404:90:2,Eppingen,-1.286453247518246,36.82911213073139,278.0,,,P32094,0
de:08125:5404:90:3,Eppingen,-1.2886630440940632,36.82790627803794,278.0,,,P32094,0
de:08125:5606:2:1,Bad Wimpfen-Hohenstadt,-1.2901661535488236,36.81502086213051,,,,,0
de:08125:620:90:7,Neckarsulm,-1.2806957013540774,36.813006190414,,,,P1591,0
de:08125:620:90:8,Neckarsulm,-1.2899150205641723,36.81328126312257,,,,P1591,0
de:08125:6232:1,Babstadt,-1.2899361240166707,36.82451690121326,,,,P1632,0
de:08125:6232:2:1,Babstadt,-1.2861631335231054,36.81900875055862,,,,P1632,0
de:08125:665:1:1,Elsenz Rathaus,-1.2920705019645569,36.82009156462501,278.0,,,P13416,0
de:08125:665:1:2,Elsenz Rathaus,-1.2979336904998902,36.82196553849462,278.0,,,P13416,0
de:08125:666:1:1,Elsenz Siedlung,-1.2928130959552722,36.813748843261806,278.0,,,P13418,0
de:08125:666:1:2,Elsenz Siedlung,-1.2824999598419267,36.8112450723492,278.0,,,P13418,0
de:08125:693:1:Mast1,Schwaigern Bahnhof,-1.2907564697461078,36.81228577465881,,,,P34812,0
de:08125:693:90:2,Schwaigern (WÃÂÃÂÃÂÃÂÃÂÃÂÃÂÃÂÃÂÃÂÃÂÃÂÃÂÃÂÃÂÃÂÃÂÃÂÃÂÃÂÃÂÃÂÃÂÃÂÃÂÃÂÃÂÃÂÃÂÃÂÃÂÃÂÃÂÃÂÃÂÃÂÃÂÃÂÃÂÃÂÃÂÃÂÃÂÃÂÃÂÃÂÃÂÃÂÃÂÃÂÃÂÃÂÃÂÃÂÃÂÃÂÃÂÃÂÃÂÃÂÃÂÃÂÃÂÃÂ¼rtt.),-1.2822693987350382,36.825927839506946,,,,P34812,0
de:08125:700,Stetten Kirche,-1.280234601715293,36.82913640622786,,,,P30575,0
de:08125:7401:1:1,Leingarten,-1.2821669115377785,36.810645036746024,,,,P34813,0
de:08125:7401:1:2,Leingarten,-1.2867900877812835,36.81022557096633,,,,P34813,0
de:08125:7401:2:21,Leingarten Bahnhof,-1.2828845419164534,36.82777378074523,,,,P34813,0
de:08125:7403:1:2,Leingarten Mitte,-1.2885800870515847,36.814098285162835,,,,P1585,0
de:08125:7403:2:1,Leingarten Mitte,-1.2969651124944614,36.81538466320623,,,,P1585,0
de:08125:7404:2:1,Leingarten West,-1.2820612758610062,36.82178502164219,,,,P34815,0
de:08125:7404:3:2,Leingarten West,-1.2896763934808813,36.82266004152183,,,,P34815,0
de:08125:7405,Leingarten Kiesberg,-1.295722608328567,36.820181477703265,,,,P16049,0
de:08125:8402:1:2,Leingarten Ost,-1.2977352116832224,36.813159900518514,,,,P1589,0
de:08125:8402:2:1,Leingarten Ost,-1.296371080096422,36.82038599691054,,,,P1589,0
de:08125:9200:1,Grombach,-1.2819328270247996,36.81418163635324,,,,P1635,0
de:08125:9200:2:1,Grombach,-1.2930374044281443,36.81890559579695,,,,P1635,0
de:08125:9200:3:2,Grombach,-1.2835404816304197,36.81482766782115,,,,P1635,0
de:08126:10101:2:1,Bretzfeld,-1.2800755515056073,36.82867210919581,,,,P1576,0
de:08126:10101:3:2,Bretzfeld,-1.2802793056524706,36.81334788336965,,,,P1576,0
de:08126:10220:2:1,ÃÂÃÂÃÂÃÂÃÂÃÂÃÂÃÂÃÂÃÂÃÂÃÂÃÂÃÂÃÂÃÂÃÂÃÂÃÂÃÂÃÂÃÂÃÂÃÂÃÂÃÂÃÂÃÂÃÂÃÂÃÂÃÂÃÂÃÂÃÂÃÂÃÂÃÂÃÂÃÂÃÂÃÂÃÂÃÂÃÂÃÂÃÂÃÂÃÂÃÂÃÂÃÂÃÂÃÂÃÂÃÂÃÂÃÂÃÂÃÂÃÂÃÂÃÂÃÂhringen Hbf,-1.2900427929740916,36.81367677482924,,,,P1572,0
de:08126:10220:3:2,ÃÂÃÂÃÂÃÂÃÂÃÂÃÂÃÂÃÂÃÂÃÂÃÂÃÂÃÂÃÂÃÂÃÂÃÂÃÂÃÂÃÂÃÂÃÂÃÂÃÂÃÂÃÂÃÂÃÂÃÂÃÂÃÂÃÂÃÂÃÂÃÂÃÂÃÂÃÂÃÂÃÂÃÂÃÂÃÂÃÂÃÂÃÂÃÂÃÂÃÂÃÂÃÂÃÂÃÂÃÂÃÂÃÂÃÂÃÂÃÂÃÂÃÂÃÂÃÂhringen Hbf,-1.2858765068809341,36.81465035115218,,,,P1572,0
de:08126:19600:90:1,Scheppach,-1.2930499369990953,36.81252646861899,,,,P1578,0
de:08126:19600:91:2,Scheppach,-1.2896490807518053,36.81229696321412,,,,P1578,0
de:08126:19601:90:1,Bitzfeld,-1.290636751776428,36.82785141648314,,,,P1579,0
de:08126:19601:91:2,Bitzfeld,-1.2932545940246094,36.813849140570746,,,,P1579,0
de:08126:19602:2:2,ÃÂÃÂÃÂÃÂÃÂÃÂÃÂÃÂÃÂÃÂÃÂÃÂÃÂÃÂÃÂÃÂÃÂÃÂÃÂÃÂÃÂÃÂÃÂÃÂÃÂÃÂÃÂÃÂÃÂÃÂÃÂÃÂÃÂÃÂÃÂÃÂÃÂÃÂÃÂÃÂÃÂÃÂÃÂÃÂÃÂÃÂÃÂÃÂÃÂÃÂÃÂÃÂÃÂÃÂÃÂÃÂÃÂÃÂÃÂÃÂÃÂÃÂÃÂÃÂhringen-Cappel,-1.2965336357685167,36.825183136402075,,,,P1546,0
de:08126:19603:1:1,ÃÂÃÂÃÂÃÂÃÂÃÂÃÂÃÂÃÂÃÂÃÂÃÂÃÂÃÂÃÂÃÂÃÂÃÂÃÂÃÂÃÂÃÂÃÂÃÂÃÂÃÂÃÂÃÂÃÂÃÂÃÂÃÂÃÂÃÂÃÂÃÂÃÂÃÂÃÂÃÂÃÂÃÂÃÂÃÂÃÂÃÂÃÂÃÂÃÂÃÂÃÂÃÂÃÂÃÂÃÂÃÂÃÂÃÂÃÂÃÂÃÂÃÂÃÂÃÂhringen West,-1.2836276206120112,36.81257764414631,,,,P1577,0
de:08126:19603:2:1,ÃÂÃÂÃÂÃÂÃÂÃÂÃÂÃÂÃÂÃÂÃÂÃÂÃÂÃÂÃÂÃÂÃÂÃÂÃÂÃÂÃÂÃÂÃÂÃÂÃÂÃÂÃÂÃÂÃÂÃÂÃÂÃÂÃÂÃÂÃÂÃÂÃÂÃÂÃÂÃÂÃÂÃÂÃÂÃÂÃÂÃÂÃÂÃÂÃÂÃÂÃÂÃÂÃÂÃÂÃÂÃÂÃÂÃÂÃÂÃÂÃÂÃÂÃÂÃÂhringen West,-1.2834884642431932,36.8237750739993,,,,P1577,0
de:08211:1847:2:11,Baden-Baden Bahnhof,-1.2914668298667036,36.82652918752252,480.0,,,P1847,0
de:08211:1847:2:12,Baden-Baden Bahnhof,-1.285265783030728,36.82726774702095,480.0,,,P1847,0
de:08211:1847:2:13,Baden-Baden Bahnhof,-1.2888708526152806,36.82901740518048,480.0,,,P1847,0
de:08211:1847:2:21,Baden-Baden Bahnhof,-1.2938696602282136,36.82309648738643,480.0,,,P1847,0
de:08211:1847:2:22,Baden-Baden Bahnhof,-1.2889340530985323,36.82610964726914,480.0,,,P1847,0
de:08211:1847:2:23,Baden-Baden Bahnhof,-1.282115714884613,36.81680579751944,480.0,,,P1847,0
de:08211:1847:2:24,Baden-Baden Bahnhof,-1.287876067163266,36.81197905665871,480.0,,,P1847,0
de:08211:1847:2:31,Baden-Baden Bahnhof,-1.292261228291996,36.821861157666966,480.0,,,P1847,0
de:08211:1847:3:1,Baden-Baden,-1.280528517291836,36.82347078806633,480.0,,,P1847,0
de:08211:1847:4:2,Baden-Baden,-1.294144607024065,36.81158117912533,480.0,,,P1847,0
de:08211:1847:4:3,Baden-Baden,-1.2806585006960876,36.82434814056945,480.0,,,P1847,0
de:08211:1847:5:4,Baden-Baden,-1.2998933079904167,36.82868878354641,480.0,,,P1847,0
de:08211:31836:0:1,Steinbach Ziegelei,-1.2990442916626102,36.819697333973494,480.0,,,P31836,0
de:08211:31836:0:2,Steinbach Ziegelei,-1.286947922515916,36.826748731235256,480.0,,,P31836,0
de:08211:31837:0:1,Baden-Baden WÃÂÃÂÃÂÃÂÃÂÃÂÃÂÃÂÃÂÃÂÃÂÃÂÃÂÃÂÃÂÃÂÃÂÃÂÃÂÃÂÃÂÃÂÃÂÃÂÃÂÃÂÃÂÃÂÃÂÃÂÃÂÃÂÃÂÃÂÃÂÃÂÃÂÃÂÃÂÃÂÃÂÃÂÃÂÃÂÃÂÃÂÃÂÃÂÃÂÃÂÃÂÃÂÃÂÃÂÃÂÃÂÃÂÃÂÃÂÃÂÃÂÃÂÃÂÃÂ¶rthstraÃÂÃÂÃÂÃÂÃÂÃÂÃÂÃÂÃÂÃÂÃÂÃÂÃÂÃÂÃÂÃÂÃÂÃÂÃÂÃÂÃÂÃÂÃÂÃÂÃÂÃÂÃÂÃÂÃÂÃÂÃÂÃÂÃÂÃÂÃÂÃÂÃÂÃÂÃÂÃÂÃÂÃÂÃÂÃÂÃÂÃÂÃÂÃÂÃÂÃÂÃÂÃÂÃÂÃÂÃÂÃÂÃÂÃÂÃÂÃÂÃÂÃÂÃÂÃÂe,-1.281454864317493,36.82746467096444,480.0,,,P31837,0
de:08211:31837:0:2,Baden-Baden WÃÂÃÂÃÂÃÂÃÂÃÂÃÂÃÂÃÂÃÂÃÂÃÂÃÂÃÂÃÂÃÂÃÂÃÂÃÂÃÂÃÂÃÂÃÂÃÂÃÂÃÂÃÂÃÂÃÂÃÂÃÂÃÂÃÂÃÂÃÂÃÂÃÂÃÂÃÂÃÂÃÂÃÂÃÂÃÂÃÂÃÂÃÂÃÂÃÂÃÂÃÂÃÂÃÂÃÂÃÂÃÂÃÂÃÂÃÂÃÂÃÂÃÂÃÂÃÂ¶rthstraÃÂÃÂÃÂÃÂÃÂÃÂÃÂÃÂÃÂÃÂÃÂÃÂÃÂÃÂÃÂÃÂÃÂÃÂÃÂÃÂÃÂÃÂÃÂÃÂÃÂÃÂÃÂÃÂÃÂÃÂÃÂÃÂÃÂÃÂÃÂÃÂÃÂÃÂÃÂÃÂÃÂÃÂÃÂÃÂÃÂÃÂÃÂÃÂÃÂÃÂÃÂÃÂÃÂÃÂÃÂÃÂÃÂÃÂÃÂÃÂÃÂÃÂÃÂÃÂe,-1.2832186036915736,36.819898848965984,480.0,,,P31837,0
de:08211:31837:0:3,Baden-Baden WÃÂÃÂÃÂÃÂÃÂÃÂÃÂÃÂÃÂÃÂÃÂÃÂÃÂÃÂÃÂÃÂÃÂÃÂÃÂÃÂÃÂÃÂÃÂÃÂÃÂÃÂÃÂÃÂÃÂÃÂÃÂÃÂÃÂÃÂÃÂÃÂÃÂÃÂÃÂÃÂÃÂÃÂÃÂÃÂÃÂÃÂÃÂÃÂÃÂÃÂÃÂÃÂÃÂÃÂÃÂÃÂÃÂÃÂÃÂÃÂÃÂÃÂÃÂÃÂ¶rthstraÃÂÃÂÃÂÃÂÃÂÃÂÃÂÃÂÃÂÃÂÃÂÃÂÃÂÃÂÃÂÃÂÃÂÃÂÃÂÃÂÃÂÃÂÃÂÃÂÃÂÃÂÃÂÃÂÃÂÃÂÃÂÃÂÃÂÃÂÃÂÃÂÃÂÃÂÃÂÃÂÃÂÃÂÃÂÃÂÃÂÃÂÃÂÃÂÃÂÃÂÃÂÃÂÃÂÃÂÃÂÃÂÃÂÃÂÃÂÃÂÃÂÃÂÃÂÃÂe,-1.2919253259140773,36.82847295688248,480.0,,,P31837,0
de:08211:31838:0:1,Ebersteinburg Wolfsschlucht,-1.2982591531462373,36.827367857574714,480.0,,,P31838,0
de:08211:31838:0:2,Ebersteinburg Wolfsschlucht,-1.292654407646565,36.82921613005557,480.0,,,P31838,0
de:08211:31838:0:3,Ebersteinburg Wolfsschlucht,-1.2815336263688264,36.826152513751396,480.0,,,P31838,0
de:08211:31839:0:1,Baden-Baden Wilhelm-Drapp-Str,-1.2960786368288515,36.82495172515827,480.0,,,P31839,0
de:08211:31839:0:2,Baden-Baden Wilhelm-Drapp-Str,-1.2886488878021913,36.82624244769147,480.0,,,P31839,0
de:08211:31840:0:1,Baden-Baden WerderstraÃÂÃÂÃÂÃÂÃÂÃÂÃÂÃÂÃÂÃÂÃÂÃÂÃÂÃÂÃÂÃÂÃÂÃÂÃÂÃÂÃÂÃÂÃÂÃÂÃÂÃÂÃÂÃÂÃÂÃÂÃÂÃÂÃÂÃÂÃÂÃÂÃÂÃÂÃÂÃÂÃÂÃÂÃÂÃÂÃÂÃÂÃÂÃÂÃÂÃÂÃÂÃÂÃÂÃÂÃÂÃÂÃÂÃÂÃÂÃÂÃÂÃÂÃÂÃÂe,-1.2871144530705525,36.82698223949704,480.0,,,,0
de:08211:31841:0:1,Baden-Baden Waldseestr./Verfassungsplatz,-1.2858024376672845,36.82208098992511,480.0,,,P31841,0
de:08211:31841:0:2,Baden-Baden Waldseestr./Verfassungsplatz,-1.2840050699677734,36.82029021179872,480.0,,,P31841,0
de:08211:31842:0:1,Ebersteinburg Waldkapelle,-1.2879429707084233,36.81436422682802,480.0,,,P31842,0
de:08211:31842:0:2,Ebersteinburg Waldkapelle,-1.283483572803957,36.82035311142912,480.0,,,P31842,0
de:08211:31843:0:1,Baden-Baden WaldcafÃÂÃÂÃÂÃÂÃÂÃÂÃÂÃÂÃÂÃÂÃÂÃÂÃÂÃÂÃÂÃÂÃÂÃÂÃÂÃÂÃÂÃÂÃÂÃÂÃÂÃÂÃÂÃÂÃÂÃÂÃÂÃÂÃÂÃÂÃÂÃÂÃÂÃÂÃÂÃÂÃÂÃÂÃÂÃÂÃÂÃÂÃÂÃÂÃÂÃÂÃÂÃÂÃÂÃÂÃÂÃÂÃÂÃÂÃÂÃÂÃÂÃÂÃÂÃÂ©,-1.28771378084542,36.81195913666229,480.0,,,P31843,0
de:08211:31843:0:2,Baden-Baden WaldcafÃÂÃÂÃÂÃÂÃÂÃÂÃÂÃÂÃÂÃÂÃÂÃÂÃÂÃÂÃÂÃÂÃÂÃÂÃÂÃÂÃÂÃÂÃÂÃÂÃÂÃÂÃÂÃÂÃÂÃÂÃÂÃÂÃÂÃÂÃÂÃÂÃÂÃÂÃÂÃÂÃÂÃÂÃÂÃÂÃÂÃÂÃÂÃÂÃÂÃÂÃÂÃÂÃÂÃÂÃÂÃÂÃÂÃÂÃÂÃÂÃÂÃÂÃÂÃÂ©,-1.2800361179892334,36.825011581562805,480.0,,,P31843,0
de:08211:31844:0:1,Baden-Baden Voglergasse,-1.284666715890073,36.82702511598952,480.0,,,,0
de:08211:31845:0:2,Varnhalt Kirche,-1.2811437121450957,36.8284996480244,480.0,,,P31845,0
de:08211:31845:0:4,Varnhalt Kirche,-1.2990777602693824,36.81512152870153,480.0,,,P31845,0
de:08211:31846:0:1,Baden-Baden U.Prinz-Weimar-Str,-1.2862510968241594,36.817291499673246,480.0,,,P31846,0
de:08211:31846:0:2,Baden-Baden U.Prinz-Weimar-Str,-1.298316029504639,36.82264998779921,480.0,,,P31846,0
de:08211:31847:0:1,Steinbach Umweger Str.,-1.290537173525261,36.82629188445863,480.0,,,P31847,0
de:08211:31847:0:2,Steinbach Umweger Str.,-1.2841402537733217,36.815702603579304,480.0,,,P31847,0
de:08211:31848:0:91,Steinbach Satzweg (Ersatzhalt),-1.2969436964990038,36.828211342517335,480.0,,,P31848,0
de:08211:31848:0:92,Steinbach Satzweg (Ersatzhalt),-1.2813175734402147,36.81056921279103,480.0,,,P31848,0
de:08211:31849:0:1,Baden-Baden Tiergarten / cts-Klinik,-1.283669801930502,36.819903322569644,480.0,,,P31849,0
de:08211:31849:0:2,Baden-Baden Tiergarten / cts-Klinik,-1.299474240869003,36.81112008817054,480.0,,,P31849,0
de:08211:31849:0:3,Baden-Baden Tiergarten / cts-Klinik,-1.2852614423599475,36.823686259938675,480.0,,,P31849,0
de:08211:31851:0:1,Lichtental Steinackergasse,-1.2810402871395676,36.821667652374444,480.0,,,P31851,0
de:08211:31851:0:2,Lichtental Steinackergasse,-1.2971703395601935,36.81359770338566,480.0,,,P31851,0
de:08211:31852:0:1,Balg Klinikum Mittelbaden,-1.2979539579947426,36.826939156696504,480.0,,,P31852,0
de:08211:31852:0:2,Balg Klinikum Mittelbaden,-1.2891719088363252,36.82701821854034,480.0,,,P31852,0
de:08211:31853:0:1,Baden-Baden Hauptfriedhof,-1.2844655781916012,36.821486139847416,480.0,,,,0
de:08211:31854:0:1,Baden-Baden StadelhoferstraÃÂÃÂÃÂÃÂÃÂÃÂÃÂÃÂÃÂÃÂÃÂÃÂÃÂÃÂÃÂÃÂÃÂÃÂÃÂÃÂÃÂÃÂÃÂÃÂÃÂÃÂÃÂÃÂÃÂÃÂÃÂÃÂÃÂÃÂÃÂÃÂÃÂÃÂÃÂÃÂÃÂÃÂÃÂÃÂÃÂÃÂÃÂÃÂÃÂÃÂÃÂÃÂÃÂÃÂÃÂÃÂÃÂÃÂÃÂÃÂÃÂÃÂÃÂÃÂe,-1.2820188254892604,36.813736193269605,480.0,,,P31854,0
de:08211:31854:0:2,Baden-Baden StadelhoferstraÃÂÃÂÃÂÃÂÃÂÃÂÃÂÃÂÃÂÃÂÃÂÃÂÃÂÃÂÃÂÃÂÃÂÃÂÃÂÃÂÃÂÃÂÃÂÃÂÃÂÃÂÃÂÃÂÃÂÃÂÃÂÃÂÃÂÃÂÃÂÃÂÃÂÃÂÃÂÃÂÃÂÃÂÃÂÃÂÃÂÃÂÃÂÃÂÃÂÃÂÃÂÃÂÃÂÃÂÃÂÃÂÃÂÃÂÃÂÃÂÃÂÃÂÃÂÃÂe,-1.298934943951391,36.81813586262423,480.0,,,P31854,0
de:08211:31855:0:1,Baden-Baden SolmsstraÃÂÃÂÃÂÃÂÃÂÃÂÃÂÃÂÃÂÃÂÃÂÃÂÃÂÃÂÃÂÃÂÃÂÃÂÃÂÃÂÃÂÃÂÃÂÃÂÃÂÃÂÃÂÃÂÃÂÃÂÃÂÃÂÃÂÃÂÃÂÃÂÃÂÃÂÃÂÃÂÃÂÃÂÃÂÃÂÃÂÃÂÃÂÃÂÃÂÃÂÃÂÃÂÃÂÃÂÃÂÃÂÃÂÃÂÃÂÃÂÃÂÃÂÃÂÃÂe,-1.2957156799568792,36.818912124930236,480.0,,,,0
de:08211:31856:0:1,Baden-Baden Sinzheimer Str.,-1.2883528859044806,36.82262446062289,480.0,,,P31856,0
de:08211:31856:0:2,Baden-Baden Sinzheimer Str.,-1.2921004336561797,36.82264363332883,480.0,,,P31856,0
de:08211:31864:0:1,Baden-Baden Schirmhofweg,-1.2978506757869301,36.82664606953113,480.0,,,P31864,0
de:08211:31864:0:2,Baden-Baden Schirmhofweg,-1.2897795501932092,36.821886801879096,480.0,,,P31864,0
de:08211:31866:0:1,Lichtental Sauersbosch,-1.2908936592630877,36.81091577901397,480.0,,,P31866,0
de:08211:31866:0:2,Lichtental Sauersbosch,-1.296008758241436,36.82975423264946,480.0,,,P31866,0
de:08211:31867:0:1,Sandweier SÃÂÃÂÃÂÃÂÃÂÃÂÃÂÃÂÃÂÃÂÃÂÃÂÃÂÃÂÃÂÃÂÃÂÃÂÃÂÃÂÃÂÃÂÃÂÃÂÃÂÃÂÃÂÃÂÃÂÃÂÃÂÃÂÃÂÃÂÃÂÃÂÃÂÃÂÃÂÃÂÃÂÃÂÃÂÃÂÃÂÃÂÃÂÃÂÃÂÃÂÃÂÃÂÃÂÃÂÃÂÃÂÃÂÃÂÃÂÃÂÃÂÃÂÃÂÃÂ¼dring,-1.297597522056267,36.824304377003834,480.0,,,P31867,0
de:08211:31867:0:2,Sandweier SÃÂÃÂÃÂÃÂÃÂÃÂÃÂÃÂÃÂÃÂÃÂÃÂÃÂÃÂÃÂÃÂÃÂÃÂÃÂÃÂÃÂÃÂÃÂÃÂÃÂÃÂÃÂÃÂÃÂÃÂÃÂÃÂÃÂÃÂÃÂÃÂÃÂÃÂÃÂÃÂÃÂÃÂÃÂÃÂÃÂÃÂÃÂÃÂÃÂÃÂÃÂÃÂÃÂÃÂÃÂÃÂÃÂÃÂÃÂÃÂÃÂÃÂÃÂÃÂ¼dring,-1.2966332589097025,36.821891893259014,480.0,,,P31867,0
de:08211:31868:0:1,Sandweier Nord,-1.2964499900619242,36.816854789998885,480.0,,,P31868,0
de:08211:31868:0:2,Sandweier Nord,-1.2859233594923558,36.81580878104245,480.0,,,P31868,0
de:08211:31869:0:1,Sandweier MÃÂÃÂÃÂÃÂÃÂÃÂÃÂÃÂÃÂÃÂÃÂÃÂÃÂÃÂÃÂÃÂÃÂÃÂÃÂÃÂÃÂÃÂÃÂÃÂÃÂÃÂÃÂÃÂÃÂÃÂÃÂÃÂÃÂÃÂÃÂÃÂÃÂÃÂÃÂÃÂÃÂÃÂÃÂÃÂÃÂÃÂÃÂÃÂÃÂÃÂÃÂÃÂÃÂÃÂÃÂÃÂÃÂÃÂÃÂÃÂÃÂÃÂÃÂÃÂ¼hlstraÃÂÃÂÃÂÃÂÃÂÃÂÃÂÃÂÃÂÃÂÃÂÃÂÃÂÃÂÃÂÃÂÃÂÃÂÃÂÃÂÃÂÃÂÃÂÃÂÃÂÃÂÃÂÃÂÃÂÃÂÃÂÃÂÃÂÃÂÃÂÃÂÃÂÃÂÃÂÃÂÃÂÃÂÃÂÃÂÃÂÃÂÃÂÃÂÃÂÃÂÃÂÃÂÃÂÃÂÃÂÃÂÃÂÃÂÃÂÃÂÃÂÃÂÃÂÃÂe,-1.2922105880712693,36.82795728816738,480.0,,,P31869,0
de:08211:31869:0:2,Sandweier MÃÂÃÂÃÂÃÂÃÂÃÂÃÂÃÂÃÂÃÂÃÂÃÂÃÂÃÂÃÂÃÂÃÂÃÂÃÂÃÂÃÂÃÂÃÂÃÂÃÂÃÂÃÂÃÂÃÂÃÂÃÂÃÂÃÂÃÂÃÂÃÂÃÂÃÂÃÂÃÂÃÂÃÂÃÂÃÂÃÂÃÂÃÂÃÂÃÂÃÂÃÂÃÂÃÂÃÂÃÂÃÂÃÂÃÂÃÂÃÂÃÂÃÂÃÂÃÂ¼hlstraÃÂÃÂÃÂÃÂÃÂÃÂÃÂÃÂÃÂÃÂÃÂÃÂÃÂÃÂÃÂÃÂÃÂÃÂÃÂÃÂÃÂÃÂÃÂÃÂÃÂÃÂÃÂÃÂÃÂÃÂÃÂÃÂÃÂÃÂÃÂÃÂÃÂÃÂÃÂÃÂÃÂÃÂÃÂÃÂÃÂÃÂÃÂÃÂÃÂÃÂÃÂÃÂÃÂÃÂÃÂÃÂÃÂÃÂÃÂÃÂÃÂÃÂÃÂÃÂe,-1.2849342715708305,36.817256960867645,480.0,,,P31869,0
de:08211:31870:0:1,Sandweier Mitte,-1.2999614207059398,36.82158502211951,480.0,,,P31870,0
de:08211:31870:0:2,Sandweier Mitte,-1.29391015291299,36.817748110625004,480.0,,,P31870,0
de:08211:31871:0:1,Sandweier Autobahnkirche,-1.2827105985315386,36.815977626632545,480.0,,,P31871,0
de:08211:31871:0:2,Sandweier Autobahnkirche,-1.2856259080182872,36.814422110107486,480.0,,,P31871,0
de:08211:31873:1:1,Baden-Baden Rheumazentrum,-1.2847640037214325,36.81942465019093,480.0,,,,0
de:08211:31880:0:1,Baden-Baden Quettigstaffeln,-1.2807468399254813,36.814429716005336,480.0,,,,0
de:08211:31882:0:1,Baden-Baden Obere SchuÃÂÃÂÃÂÃÂÃÂÃÂÃÂÃÂÃÂÃÂÃÂÃÂÃÂÃÂÃÂÃÂÃÂÃÂÃÂÃÂÃÂÃÂÃÂÃÂÃÂÃÂÃÂÃÂÃÂÃÂÃÂÃÂÃÂÃÂÃÂÃÂÃÂÃÂÃÂÃÂÃÂÃÂÃÂÃÂÃÂÃÂÃÂÃÂÃÂÃÂÃÂÃÂÃÂÃÂÃÂÃÂÃÂÃÂÃÂÃÂÃÂÃÂÃÂÃÂbach,-1.294948217275745,36.82075042906755,480.0,,,P31882,0
de:08211:31882:0:2,Baden-Baden Obere SchuÃÂÃÂÃÂÃÂÃÂÃÂÃÂÃÂÃÂÃÂÃÂÃÂÃÂÃÂÃÂÃÂÃÂÃÂÃÂÃÂÃÂÃÂÃÂÃÂÃÂÃÂÃÂÃÂÃÂÃÂÃÂÃÂÃÂÃÂÃÂÃÂÃÂÃÂÃÂÃÂÃÂÃÂÃÂÃÂÃÂÃÂÃÂÃÂÃÂÃÂÃÂÃÂÃÂÃÂÃÂÃÂÃÂÃÂÃÂÃÂÃÂÃÂÃÂÃÂbach,-1.282771538417411,36.813229197498345,480.0,,,P31882,0
de:08211:31883:0:1,Baden-Baden Ob.Prinz-Weimar-S,-1.2922106718623352,36.81743124696236,480.0,,,P31883,0
de:08211:31883:0:2,Baden-Baden Ob.Prinz-Weimar-S,-1.2958112648518492,36.815943627218424,480.0,,,P31883,0
de:08211:31885:0:1,Baden-Baden Obere Breite,-1.2820636159671217,36.82335750285296,480.0,,,,0
de:08211:31886:0:1,Baden-Baden Kaiser-Wilhelm-S.,-1.2937188393125683,36.812781728446645,480.0,,,,0
de:08211:31887:0:1,Oberbeuern,-1.2908169734964994,36.81027654076849,480.0,,,,0
de:08211:31888:0:1,Baden-Baden Neues Schloss,-1.280334161201106,36.81097703250607,480.0,,,,0
de:08211:31889:0:1,BAD Moltkestr./Rosengarten,-1.2919403493008907,36.813371333927975,480.0,,,,0
de:08211:31890:0:1,Baden-Baden Merkurwald,-1.2816575196238018,36.829534477094285,480.0,,,,0
de:08211:31891:0:1,Baden-Baden MaximilianstraÃÂÃÂÃÂÃÂÃÂÃÂÃÂÃÂÃÂÃÂÃÂÃÂÃÂÃÂÃÂÃÂÃÂÃÂÃÂÃÂÃÂÃÂÃÂÃÂÃÂÃÂÃÂÃÂÃÂÃÂÃÂÃÂÃÂÃÂÃÂÃÂÃÂÃÂÃÂÃÂÃÂÃÂÃÂÃÂÃÂÃÂÃÂÃÂÃÂÃÂÃÂÃÂÃÂÃÂÃÂÃÂÃÂÃÂÃÂÃÂÃÂÃÂÃÂÃÂe,-1.295832161491097,36.816158535957875,480.0,,,,0
de:08211:31893:0:2,BAD Maximilianstr./Falkenstr.,-1.2815608837852945,36.82734615923469,480.0,,,,0
de:08211:31895:0:1,Baden-Baden Marktplatz/Rath.,-1.2938497740435848,36.82453985496223,480.0,,,,0
de:08211:31896:0:1,Baden-Baden Markgrafenplatz,-1.2890911354721473,36.82165183572159,480.0,,,P31896,0
de:08211:31896:0:2,Baden-Baden Markgrafenplatz,-1.2884819382088546,36.82809544582271,480.0,,,P31896,0
de:08211:31896:0:3,Baden-Baden Markgrafenplatz,-1.2936168527284198,36.81830304666456,480.0,,,P31896,0
de:08211:31897:0:1,Baden-Baden Mariahalden,-1.2963027711740545,36.81773469928377,480.0,,,,0
de:08211:31898:0:1,Malschbach,-1.2931315215845605,36.82711477390789,480.0,,,,0
de:08211:31900:0:1,BAD Lilienmattstr./Kl. Annaberg,-1.2888149941839473,36.81481753950046,480.0,,,P31900,0
de:08211:31900:0:2,BAD Lilienmattstr./Kl. Annaberg,-1.2957354157594514,36.818954375021555,480.0,,,P31900,0
de:08211:31901:0:1,BAD Lichtentaler All./Museen,-1.2896448462096257,36.81090850799747,480.0,,,P31901,0
de:08211:31901:0:2,BAD Lichtentaler All./Museen,-1.2916354985657958,36.828262842280814,480.0,,,P31901,0
de:08211:31902:0:1,Lichtental,-1.2843853547969248,36.81236540704097,480.0,,,P31902,0
de:08211:31902:0:2,Lichtental,-1.283613311200009,36.82762056120913,480.0,,,P31902,0
de:08211:31903:0:1,Lichtental Lerchenbergweg,-1.294518012675695,36.82746255650007,480.0,,,P31903,0
de:08211:31903:0:2,Lichtental Lerchenbergweg,-1.2989927678279545,36.815066034433485,480.0,,,P31903,0
de:08211:31904:0:1,Baden-Baden LeopoldstraÃÂÃÂÃÂÃÂÃÂÃÂÃÂÃÂÃÂÃÂÃÂÃÂÃÂÃÂÃÂÃÂÃÂÃÂÃÂÃÂÃÂÃÂÃÂÃÂÃÂÃÂÃÂÃÂÃÂÃÂÃÂÃÂÃÂÃÂÃÂÃÂÃÂÃÂÃÂÃÂÃÂÃÂÃÂÃÂÃÂÃÂÃÂÃÂÃÂÃÂÃÂÃÂÃÂÃÂÃÂÃÂÃÂÃÂÃÂÃÂÃÂÃÂÃÂÃÂe,-1.289736832445113,36.82924869378714,480.0,,,,0
de:08211:31905:0:1,Baden-Baden KurfÃÂÃÂÃÂÃÂÃÂÃÂÃÂÃÂÃÂÃÂÃÂÃÂÃÂÃÂÃÂÃÂÃÂÃÂÃÂÃÂÃÂÃÂÃÂÃÂÃÂÃÂÃÂÃÂÃÂÃÂÃÂÃÂÃÂÃÂÃÂÃÂÃÂÃÂÃÂÃÂÃÂÃÂÃÂÃÂÃÂÃÂÃÂÃÂÃÂÃÂÃÂÃÂÃÂÃÂÃÂÃÂÃÂÃÂÃÂÃÂÃÂÃÂÃÂÃÂ¼rstenstraÃÂÃÂÃÂÃÂÃÂÃÂÃÂÃÂÃÂÃÂÃÂÃÂÃÂÃÂÃÂÃÂÃÂÃÂÃÂÃÂÃÂÃÂÃÂÃÂÃÂÃÂÃÂÃÂÃÂÃÂÃÂÃÂÃÂÃÂÃÂÃÂÃÂÃÂÃÂÃÂÃÂÃÂÃÂÃÂÃÂÃÂÃÂÃÂÃÂÃÂÃÂÃÂÃÂÃÂÃÂÃÂÃÂÃÂÃÂÃÂÃÂÃÂÃÂÃÂe,-1.2868416689151456,36.81114638060622,480.0,,,P31905,0
de:08211:31905:0:2,Baden-Baden KurfÃÂÃÂÃÂÃÂÃÂÃÂÃÂÃÂÃÂÃÂÃÂÃÂÃÂÃÂÃÂÃÂÃÂÃÂÃÂÃÂÃÂÃÂÃÂÃÂÃÂÃÂÃÂÃÂÃÂÃÂÃÂÃÂÃÂÃÂÃÂÃÂÃÂÃÂÃÂÃÂÃÂÃÂÃÂÃÂÃÂÃÂÃÂÃÂÃÂÃÂÃÂÃÂÃÂÃÂÃÂÃÂÃÂÃÂÃÂÃÂÃÂÃÂÃÂÃÂ¼rstenstraÃÂÃÂÃÂÃÂÃÂÃÂÃÂÃÂÃÂÃÂÃÂÃÂÃÂÃÂÃÂÃÂÃÂÃÂÃÂÃÂÃÂÃÂÃÂÃÂÃÂÃÂÃÂÃÂÃÂÃÂÃÂÃÂÃÂÃÂÃÂÃÂÃÂÃÂÃÂÃÂÃÂÃÂÃÂÃÂÃÂÃÂÃÂÃÂÃÂÃÂÃÂÃÂÃÂÃÂÃÂÃÂÃÂÃÂÃÂÃÂÃÂÃÂÃÂÃÂe,-1.2820851987670099,36.8149770811924,480.0,,,P31905,0
de:08211:31906:0:1,Baden-Baden Kuppenheimer Str.,-1.295414238273888,36.82468135112148,480.0,,,P31906,0
de:08211:31906:0:2,Baden-Baden Kuppenheimer Str.,-1.2940925120651328,36.82623215623291,480.0,,,P31906,0
de:08211:31906:0:3,Baden-Baden Kuppenheimer Str.,-1.2808022490141806,36.816702700936446,480.0,,,P31906,0
de:08211:31907:0:1,Baden-Baden Kronprinzenstr.,-1.291204905302173,36.82800811522963,480.0,,,,0
de:08211:31908:0:1,Lichtental Klosterplatz,-1.2886513654058005,36.819990983138766,480.0,,,P31908,0
de:08211:31908:0:2,Lichtental Klosterplatz,-1.285001958844848,36.81242059972713,480.0,,,P31908,0
de:08211:31909:0:1,BAD Klostergut Fremersberg,-1.2911425616313776,36.81886367479965,480.0,,,P31909,0
de:08211:31909:0:2,BAD Klostergut Fremersberg,-1.2887595833074819,36.827381788721155,480.0,,,P31909,0
de:08211:31910:0:1,Baden-Baden Klinik Dr. Dengler,-1.2913027212528123,36.81355266006064,480.0,,,,0
de:08211:31911:0:1,Baden-Baden KettenbrÃÂÃÂÃÂÃÂÃÂÃÂÃÂÃÂÃÂÃÂÃÂÃÂÃÂÃÂÃÂÃÂÃÂÃÂÃÂÃÂÃÂÃÂÃÂÃÂÃÂÃÂÃÂÃÂÃÂÃÂÃÂÃÂÃÂÃÂÃÂÃÂÃÂÃÂÃÂÃÂÃÂÃÂÃÂÃÂÃÂÃÂÃÂÃÂÃÂÃÂÃÂÃÂÃÂÃÂÃÂÃÂÃÂÃÂÃÂÃÂÃÂÃÂÃÂÃÂ¼cke,-1.2878996938481055,36.812547972814954,480.0,,,P31911,0
de:08211:31911:0:2,Baden-Baden KettenbrÃÂÃÂÃÂÃÂÃÂÃÂÃÂÃÂÃÂÃÂÃÂÃÂÃÂÃÂÃÂÃÂÃÂÃÂÃÂÃÂÃÂÃÂÃÂÃÂÃÂÃÂÃÂÃÂÃÂÃÂÃÂÃÂÃÂÃÂÃÂÃÂÃÂÃÂÃÂÃÂÃÂÃÂÃÂÃÂÃÂÃÂÃÂÃÂÃÂÃÂÃÂÃÂÃÂÃÂÃÂÃÂÃÂÃÂÃÂÃÂÃÂÃÂÃÂÃÂ¼cke,-1.2949853563731126,36.81534702753116,480.0,,,P31911,0
de:08211:31920:0:1,Lichtental HÃÂÃÂÃÂÃÂÃÂÃÂÃÂÃÂÃÂÃÂÃÂÃÂÃÂÃÂÃÂÃÂÃÂÃÂÃÂÃÂÃÂÃÂÃÂÃÂÃÂÃÂÃÂÃÂÃÂÃÂÃÂÃÂÃÂÃÂÃÂÃÂÃÂÃÂÃÂÃÂÃÂÃÂÃÂÃÂÃÂÃÂÃÂÃÂÃÂÃÂÃÂÃÂÃÂÃÂÃÂÃÂÃÂÃÂÃÂÃÂÃÂÃÂÃÂÃÂ¶llhÃÂÃÂÃÂÃÂÃÂÃÂÃÂÃÂÃÂÃÂÃÂÃÂÃÂÃÂÃÂÃÂÃÂÃÂÃÂÃÂÃÂÃÂÃÂÃÂÃÂÃÂÃÂÃÂÃÂÃÂÃÂÃÂÃÂÃÂÃÂÃÂÃÂÃÂÃÂÃÂÃÂÃÂÃÂÃÂÃÂÃÂÃÂÃÂÃÂÃÂÃÂÃÂÃÂÃÂÃÂÃÂÃÂÃÂÃÂÃÂÃÂÃÂÃÂÃÂ¤userweg,-1.2997098412435557,36.82738602461537,480.0,,,P31920,0
de:08211:31920:0:2,Lichtental HÃÂÃÂÃÂÃÂÃÂÃÂÃÂÃÂÃÂÃÂÃÂÃÂÃÂÃÂÃÂÃÂÃÂÃÂÃÂÃÂÃÂÃÂÃÂÃÂÃÂÃÂÃÂÃÂÃÂÃÂÃÂÃÂÃÂÃÂÃÂÃÂÃÂÃÂÃÂÃÂÃÂÃÂÃÂÃÂÃÂÃÂÃÂÃÂÃÂÃÂÃÂÃÂÃÂÃÂÃÂÃÂÃÂÃÂÃÂÃÂÃÂÃÂÃÂÃÂ¶llhÃÂÃÂÃÂÃÂÃÂÃÂÃÂÃÂÃÂÃÂÃÂÃÂÃÂÃÂÃÂÃÂÃÂÃÂÃÂÃÂÃÂÃÂÃÂÃÂÃÂÃÂÃÂÃÂÃÂÃÂÃÂÃÂÃÂÃÂÃÂÃÂÃÂÃÂÃÂÃÂÃÂÃÂÃÂÃÂÃÂÃÂÃÂÃÂÃÂÃÂÃÂÃÂÃÂÃÂÃÂÃÂÃÂÃÂÃÂÃÂÃÂÃÂÃÂÃÂ¤userweg,-1.28643772695893,36.81440620325595,480.0,,,P31920,0
de:08211:31921:1:1,Baden-Baden HubertusstraÃÂÃÂÃÂÃÂÃÂÃÂÃÂÃÂÃÂÃÂÃÂÃÂÃÂÃÂÃÂÃÂÃÂÃÂÃÂÃÂÃÂÃÂÃÂÃÂÃÂÃÂÃÂÃÂÃÂÃÂÃÂÃÂÃÂÃÂÃÂÃÂÃÂÃÂÃÂÃÂÃÂÃÂÃÂÃÂÃÂÃÂÃÂÃÂÃÂÃÂÃÂÃÂÃÂÃÂÃÂÃÂÃÂÃÂÃÂÃÂÃÂÃÂÃÂÃÂe,-1.282016290541957,36.82751214112495,480.0,,,P31921,0
de:08211:31921:1:4,Baden-Baden HubertusstraÃÂÃÂÃÂÃÂÃÂÃÂÃÂÃÂÃÂÃÂÃÂÃÂÃÂÃÂÃÂÃÂÃÂÃÂÃÂÃÂÃÂÃÂÃÂÃÂÃÂÃÂÃÂÃÂÃÂÃÂÃÂÃÂÃÂÃÂÃÂÃÂÃÂÃÂÃÂÃÂÃÂÃÂÃÂÃÂÃÂÃÂÃÂÃÂÃÂÃÂÃÂÃÂÃÂÃÂÃÂÃÂÃÂÃÂÃÂÃÂÃÂÃÂÃÂÃÂe,-1.2901939537703013,36.82907206472718,480.0,,,P31921,0
de:08211:31922:0:1,Baden-Baden Otto-Flake-Str.,-1.2940408867748208,36.82584849988588,480.0,,,,0
de:08211:31923:0:1,Steinbach Hohlgasse,-1.2823246606036776,36.828745731853715,480.0,,,P31923,0
de:08211:31923:0:2,Steinbach Hohlgasse,-1.2972206405717055,36.82851150391601,480.0,,,P31923,0
de:08211:31924:0:1,Baden-Baden HochstraÃÂÃÂÃÂÃÂÃÂÃÂÃÂÃÂÃÂÃÂÃÂÃÂÃÂÃÂÃÂÃÂÃÂÃÂÃÂÃÂÃÂÃÂÃÂÃÂÃÂÃÂÃÂÃÂÃÂÃÂÃÂÃÂÃÂÃÂÃÂÃÂÃÂÃÂÃÂÃÂÃÂÃÂÃÂÃÂÃÂÃÂÃÂÃÂÃÂÃÂÃÂÃÂÃÂÃÂÃÂÃÂÃÂÃÂÃÂÃÂÃÂÃÂÃÂÃÂe,-1.2815863682564015,36.81894198355817,480.0,,,,0
de:08211:31925:1:1,Baden-Baden Hochhaus,-1.2847406948991438,36.81980052835236,480.0,,,P31925,0
de:08211:31925:1:2,Baden-Baden Hochhaus,-1.2944020683936641,36.82334381146104,480.0,,,P31925,0
de:08211:31925:2:3,Baden-Baden Hochhaus,-1.28195146759945,36.815622004040186,480.0,,,P31925,0
de:08211:31925:2:4,Baden-Baden Hochhaus,-1.2891966439155165,36.81689387088624,480.0,,,P31925,0
de:08211:31926:0:1,Geroldsau Heschmattweg,-1.281894003309427,36.812890961264976,480.0,,,P31926,0
de:08211:31926:0:2,Geroldsau Heschmattweg,-1.283204785503812,36.828458871447815,480.0,,,P31926,0
de:08211:31927:0:1,Baden-Baden Herrengut,-1.288343715734209,36.815168988052946,480.0,,,,0
de:08211:31928:0:1,Baden-Baden Haus Reich,-1.286708176630614,36.81110898817368,480.0,,,,0
de:08211:31929:0:1,Baden-Baden Haus Planeck,-1.2832965662712725,36.82733564188495,480.0,,,,0
de:08211:31930:0:1,Haueneberstein SiemensstraÃÂÃÂÃÂÃÂÃÂÃÂÃÂÃÂÃÂÃÂÃÂÃÂÃÂÃÂÃÂÃÂÃÂÃÂÃÂÃÂÃÂÃÂÃÂÃÂÃÂÃÂÃÂÃÂÃÂÃÂÃÂÃÂÃÂÃÂÃÂÃÂÃÂÃÂÃÂÃÂÃÂÃÂÃÂÃÂÃÂÃÂÃÂÃÂÃÂÃÂÃÂÃÂÃÂÃÂÃÂÃÂÃÂÃÂÃÂÃÂÃÂÃÂÃÂÃÂe,-1.2885207160696655,36.812806892846815,480.0,,,P31930,0
de:08211:31930:0:2,Haueneberstein SiemensstraÃÂÃÂÃÂÃÂÃÂÃÂÃÂÃÂÃÂÃÂÃÂÃÂÃÂÃÂÃÂÃÂÃÂÃÂÃÂÃÂÃÂÃÂÃÂÃÂÃÂÃÂÃÂÃÂÃÂÃÂÃÂÃÂÃÂÃÂÃÂÃÂÃÂÃÂÃÂÃÂÃÂÃÂÃÂÃÂÃÂÃÂÃÂÃÂÃÂÃÂÃÂÃÂÃÂÃÂÃÂÃÂÃÂÃÂÃÂÃÂÃÂÃÂÃÂÃÂe,-1.2928991749426277,36.81650861107924,480.0,,,P31930,0
de:08211:31931:0:1,Haueneberstein Industriegebiet,-1.2886697989735483,36.81877502206568,480.0,,,,0
de:08211:31932:0:1,Baden-Baden Hans-Thoma-Str.,-1.2994282414016818,36.82507135974138,480.0,,,,0
de:08211:31933:0:1,Baden-Baden H.-Bredow-Str/SWR,-1.2857846424030108,36.82680837834423,480.0,,,P31933,0
de:08211:31933:0:2,Baden-Baden H.-Bredow-Str/SWR,-1.2927144233557264,36.827792477789515,480.0,,,P31933,0
de:08211:31934:0:1,Baden-Baden GroÃÂÃÂÃÂÃÂÃÂÃÂÃÂÃÂÃÂÃÂÃÂÃÂÃÂÃÂÃÂÃÂÃÂÃÂÃÂÃÂÃÂÃÂÃÂÃÂÃÂÃÂÃÂÃÂÃÂÃÂÃÂÃÂÃÂÃÂÃÂÃÂÃÂÃÂÃÂÃÂÃÂÃÂÃÂÃÂÃÂÃÂÃÂÃÂÃÂÃÂÃÂÃÂÃÂÃÂÃÂÃÂÃÂÃÂÃÂÃÂÃÂÃÂÃÂÃÂe Dollenstr.,-1.2962155296825053,36.826288123683305,480.0,,,P31934,0
de:08211:31934:0:2,Baden-Baden GroÃÂÃÂÃÂÃÂÃÂÃÂÃÂÃÂÃÂÃÂÃÂÃÂÃÂÃÂÃÂÃÂÃÂÃÂÃÂÃÂÃÂÃÂÃÂÃÂÃÂÃÂÃÂÃÂÃÂÃÂÃÂÃÂÃÂÃÂÃÂÃÂÃÂÃÂÃÂÃÂÃÂÃÂÃÂÃÂÃÂÃÂÃÂÃÂÃÂÃÂÃÂÃÂÃÂÃÂÃÂÃÂÃÂÃÂÃÂÃÂÃÂÃÂÃÂÃÂe Dollenstr.,-1.2920538815334919,36.82416963133527,480.0,,,P31934,0
de:08211:31935:0:1,Baden-Baden Golfplatz,-1.2859552593001071,36.829669850801245,480.0,,,P31935,0
de:08211:31935:0:2,Baden-Baden Golfplatz,-1.2970267231076227,36.823506311862715,480.0,,,P31935,0
de:08211:31936:0:1,Balg GaÃÂÃÂÃÂÃÂÃÂÃÂÃÂÃÂÃÂÃÂÃÂÃÂÃÂÃÂÃÂÃÂÃÂÃÂÃÂÃÂÃÂÃÂÃÂÃÂÃÂÃÂÃÂÃÂÃÂÃÂÃÂÃÂÃÂÃÂÃÂÃÂÃÂÃÂÃÂÃÂÃÂÃÂÃÂÃÂÃÂÃÂÃÂÃÂÃÂÃÂÃÂÃÂÃÂÃÂÃÂÃÂÃÂÃÂÃÂÃÂÃÂÃÂÃÂÃÂeck,-1.29457332153698,36.82836181206219,480.0,,,P31936,0
de:08211:31936:0:2,Balg GaÃÂÃÂÃÂÃÂÃÂÃÂÃÂÃÂÃÂÃÂÃÂÃÂÃÂÃÂÃÂÃÂÃÂÃÂÃÂÃÂÃÂÃÂÃÂÃÂÃÂÃÂÃÂÃÂÃÂÃÂÃÂÃÂÃÂÃÂÃÂÃÂÃÂÃÂÃÂÃÂÃÂÃÂÃÂÃÂÃÂÃÂÃÂÃÂÃÂÃÂÃÂÃÂÃÂÃÂÃÂÃÂÃÂÃÂÃÂÃÂÃÂÃÂÃÂÃÂeck,-1.285620212407618,36.82078855647394,480.0,,,P31936,0
de:08211:31937:0:1,Baden-Baden Gausplatz,-1.2883311854204136,36.82362453417833,480.0,,,P31937,0
de:08211:31937:0:3,Baden-Baden Gausplatz,-1.294460555180914,36.81313009420883,480.0,,,P31937,0
de:08211:31938:0:1,Varnhalt Gallenbach,-1.2854704852742505,36.822698122973826,480.0,,,P31938,0
de:08211:31938:0:2,Varnhalt Gallenbach,-1.298060444628431,36.82057110842955,480.0,,,P31938,0
de:08211:31940:1:1,Baden-Baden FriedrichshÃÂÃÂÃÂÃÂÃÂÃÂÃÂÃÂÃÂÃÂÃÂÃÂÃÂÃÂÃÂÃÂÃÂÃÂÃÂÃÂÃÂÃÂÃÂÃÂÃÂÃÂÃÂÃÂÃÂÃÂÃÂÃÂÃÂÃÂÃÂÃÂÃÂÃÂÃÂÃÂÃÂÃÂÃÂÃÂÃÂÃÂÃÂÃÂÃÂÃÂÃÂÃÂÃÂÃÂÃÂÃÂÃÂÃÂÃÂÃÂÃÂÃÂÃÂÃÂ¶he,-1.2962696111700678,36.822097522699075,480.0,,,P31940,0
de:08211:31940:1:2,Baden-Baden FriedrichshÃÂÃÂÃÂÃÂÃÂÃÂÃÂÃÂÃÂÃÂÃÂÃÂÃÂÃÂÃÂÃÂÃÂÃÂÃÂÃÂÃÂÃÂÃÂÃÂÃÂÃÂÃÂÃÂÃÂÃÂÃÂÃÂÃÂÃÂÃÂÃÂÃÂÃÂÃÂÃÂÃÂÃÂÃÂÃÂÃÂÃÂÃÂÃÂÃÂÃÂÃÂÃÂÃÂÃÂÃÂÃÂÃÂÃÂÃÂÃÂÃÂÃÂÃÂÃÂ¶he,-1.2900343591213939,36.81501576719561,480.0,,,P31940,0
de:08211:31940:2:3,Baden-Baden FriedrichshÃÂÃÂÃÂÃÂÃÂÃÂÃÂÃÂÃÂÃÂÃÂÃÂÃÂÃÂÃÂÃÂÃÂÃÂÃÂÃÂÃÂÃÂÃÂÃÂÃÂÃÂÃÂÃÂÃÂÃÂÃÂÃÂÃÂÃÂÃÂÃÂÃÂÃÂÃÂÃÂÃÂÃÂÃÂÃÂÃÂÃÂÃÂÃÂÃÂÃÂÃÂÃÂÃÂÃÂÃÂÃÂÃÂÃÂÃÂÃÂÃÂÃÂÃÂÃÂ¶he,-1.2842769778720506,36.81191507550051,480.0,,,P31940,0
de:08211:31940:2:4,Baden-Baden FriedrichshÃÂÃÂÃÂÃÂÃÂÃÂÃÂÃÂÃÂÃÂÃÂÃÂÃÂÃÂÃÂÃÂÃÂÃÂÃÂÃÂÃÂÃÂÃÂÃÂÃÂÃÂÃÂÃÂÃÂÃÂÃÂÃÂÃÂÃÂÃÂÃÂÃÂÃÂÃÂÃÂÃÂÃÂÃÂÃÂÃÂÃÂÃÂÃÂÃÂÃÂÃÂÃÂÃÂÃÂÃÂÃÂÃÂÃÂÃÂÃÂÃÂÃÂÃÂÃÂ¶he,-1.2947637091900213,36.81389517704356,480.0,,,P31940,0
de:08211:31944:0:1,Baden-Baden FalkenstraÃÂÃÂÃÂÃÂÃÂÃÂÃÂÃÂÃÂÃÂÃÂÃÂÃÂÃÂÃÂÃÂÃÂÃÂÃÂÃÂÃÂÃÂÃÂÃÂÃÂÃÂÃÂÃÂÃÂÃÂÃÂÃÂÃÂÃÂÃÂÃÂÃÂÃÂÃÂÃÂÃÂÃÂÃÂÃÂÃÂÃÂÃÂÃÂÃÂÃÂÃÂÃÂÃÂÃÂÃÂÃÂÃÂÃÂÃÂÃÂÃÂÃÂÃÂÃÂe,-1.29791226319971,36.81429409127313,480.0,,,,0
de:08211:31945:0:1,Baden-Baden EntenstallhÃÂÃÂÃÂÃÂÃÂÃÂÃÂÃÂÃÂÃÂÃÂÃÂÃÂÃÂÃÂÃÂÃÂÃÂÃÂÃÂÃÂÃÂÃÂÃÂÃÂÃÂÃÂÃÂÃÂÃÂÃÂÃÂÃÂÃÂÃÂÃÂÃÂÃÂÃÂÃÂÃÂÃÂÃÂÃÂÃÂÃÂÃÂÃÂÃÂÃÂÃÂÃÂÃÂÃÂÃÂÃÂÃÂÃÂÃÂÃÂÃÂÃÂÃÂÃÂ¼tte,-1.2961142462548783,36.82626237291032,480.0,,,P31945,0
de:08211:31945:0:2,Baden-Baden EntenstallhÃÂÃÂÃÂÃÂÃÂÃÂÃÂÃÂÃÂÃÂÃÂÃÂÃÂÃÂÃÂÃÂÃÂÃÂÃÂÃÂÃÂÃÂÃÂÃÂÃÂÃÂÃÂÃÂÃÂÃÂÃÂÃÂÃÂÃÂÃÂÃÂÃÂÃÂÃÂÃÂÃÂÃÂÃÂÃÂÃÂÃÂÃÂÃÂÃÂÃÂÃÂÃÂÃÂÃÂÃÂÃÂÃÂÃÂÃÂÃÂÃÂÃÂÃÂÃÂ¼tte,-1.2837132167674863,36.81413316536983,480.0,,,P31945,0
de:08211:31946:0:1,Baden-Baden Engel/HÃÂÃÂÃÂÃÂÃÂÃÂÃÂÃÂÃÂÃÂÃÂÃÂÃÂÃÂÃÂÃÂÃÂÃÂÃÂÃÂÃÂÃÂÃÂÃÂÃÂÃÂÃÂÃÂÃÂÃÂÃÂÃÂÃÂÃÂÃÂÃÂÃÂÃÂÃÂÃÂÃÂÃÂÃÂÃÂÃÂÃÂÃÂÃÂÃÂÃÂÃÂÃÂÃÂÃÂÃÂÃÂÃÂÃÂÃÂÃÂÃÂÃÂÃÂÃÂ¶henblick,-1.2940745173919022,36.81507321219356,480.0,,,P31946,0
de:08211:31946:0:2,Baden-Baden Engel/HÃÂÃÂÃÂÃÂÃÂÃÂÃÂÃÂÃÂÃÂÃÂÃÂÃÂÃÂÃÂÃÂÃÂÃÂÃÂÃÂÃÂÃÂÃÂÃÂÃÂÃÂÃÂÃÂÃÂÃÂÃÂÃÂÃÂÃÂÃÂÃÂÃÂÃÂÃÂÃÂÃÂÃÂÃÂÃÂÃÂÃÂÃÂÃÂÃÂÃÂÃÂÃÂÃÂÃÂÃÂÃÂÃÂÃÂÃÂÃÂÃÂÃÂÃÂÃÂ¶henblick,-1.2821448044793764,36.82748990793795,480.0,,,P31946,0
de:08211:31948:0:1,Lichtental EckerlestraÃÂÃÂÃÂÃÂÃÂÃÂÃÂÃÂÃÂÃÂÃÂÃÂÃÂÃÂÃÂÃÂÃÂÃÂÃÂÃÂÃÂÃÂÃÂÃÂÃÂÃÂÃÂÃÂÃÂÃÂÃÂÃÂÃÂÃÂÃÂÃÂÃÂÃÂÃÂÃÂÃÂÃÂÃÂÃÂÃÂÃÂÃÂÃÂÃÂÃÂÃÂÃÂÃÂÃÂÃÂÃÂÃÂÃÂÃÂÃÂÃÂÃÂÃÂÃÂe,-1.2992175527928476,36.82285613045717,480.0,,,P31948,0
de:08211:31948:0:2,Lichtental EckerlestraÃÂÃÂÃÂÃÂÃÂÃÂÃÂÃÂÃÂÃÂÃÂÃÂÃÂÃÂÃÂÃÂÃÂÃÂÃÂÃÂÃÂÃÂÃÂÃÂÃÂÃÂÃÂÃÂÃÂÃÂÃÂÃÂÃÂÃÂÃÂÃÂÃÂÃÂÃÂÃÂÃÂÃÂÃÂÃÂÃÂÃÂÃÂÃÂÃÂÃÂÃÂÃÂÃÂÃÂÃÂÃÂÃÂÃÂÃÂÃÂÃÂÃÂÃÂÃÂe,-1.288897524638169,36.821788690253925,480.0,,,P31948,0
de:08211:31949:0:1,Baden-Baden Ebertplatz,-1.293251135285811,36.81800374871212,480.0,,,P31949,0
de:08211:31949:0:2,Baden-Baden Ebertplatz,-1.2973109246180208,36.820231361931526,480.0,,,P31949,0
de:08211:31950:0:1,Ebersteinburg Klinik,-1.281124567358561,36.81563325468946,480.0,,,P31950,0
de:08211:31950:0:2,Ebersteinburg Klinik,-1.2830067456079228,36.81993378983539,480.0,,,P31950,0
de:08211:31952:0:1,Ebersteinburg Kapelle,-1.2879200184782367,36.827202775733475,480.0,,,,0
de:08211:31953:0:1,Baden-Baden Dreieichenkapelle,-1.2861653445286143,36.81072167833112,480.0,,,P31953,0
de:08211:31953:0:2,Baden-Baden Dreieichenkapelle,-1.298336325671372,36.81938821362216,480.0,,,P31953,0
de:08211:31954:0:1,Baden-Baden BÃÂÃÂÃÂÃÂÃÂÃÂÃÂÃÂÃÂÃÂÃÂÃÂÃÂÃÂÃÂÃÂÃÂÃÂÃÂÃÂÃÂÃÂÃÂÃÂÃÂÃÂÃÂÃÂÃÂÃÂÃÂÃÂÃÂÃÂÃÂÃÂÃÂÃÂÃÂÃÂÃÂÃÂÃÂÃÂÃÂÃÂÃÂÃÂÃÂÃÂÃÂÃÂÃÂÃÂÃÂÃÂÃÂÃÂÃÂÃÂÃÂÃÂÃÂÃÂ¤derviertel,-1.2825906114125216,36.82644750843576,480.0,,,,0
de:08211:31956:0:1,Neuweier Buchgasse,-1.2948217808659601,36.827344081297575,480.0,,,P31956,0
de:08211:31956:0:2,Neuweier Buchgasse,-1.2814907443646395,36.81920040602178,480.0,,,P31956,0
de:08211:31956:0:91,Neuweier Buchgasse,-1.2878843265275988,36.82471494805034,480.0,,,P31956,0
de:08211:31956:0:92,Neuweier Buchgasse,-1.2945460544329936,36.811059694760225,480.0,,,P31956,0
de:08211:31957:0:1,Baden-Baden BismarckstraÃÂÃÂÃÂÃÂÃÂÃÂÃÂÃÂÃÂÃÂÃÂÃÂÃÂÃÂÃÂÃÂÃÂÃÂÃÂÃÂÃÂÃÂÃÂÃÂÃÂÃÂÃÂÃÂÃÂÃÂÃÂÃÂÃÂÃÂÃÂÃÂÃÂÃÂÃÂÃÂÃÂÃÂÃÂÃÂÃÂÃÂÃÂÃÂÃÂÃÂÃÂÃÂÃÂÃÂÃÂÃÂÃÂÃÂÃÂÃÂÃÂÃÂÃÂÃÂe,-1.2916042677576147,36.81137942359684,480.0,,,P31957,0
de:08211:31957:0:2,Baden-Baden BismarckstraÃÂÃÂÃÂÃÂÃÂÃÂÃÂÃÂÃÂÃÂÃÂÃÂÃÂÃÂÃÂÃÂÃÂÃÂÃÂÃÂÃÂÃÂÃÂÃÂÃÂÃÂÃÂÃÂÃÂÃÂÃÂÃÂÃÂÃÂÃÂÃÂÃÂÃÂÃÂÃÂÃÂÃÂÃÂÃÂÃÂÃÂÃÂÃÂÃÂÃÂÃÂÃÂÃÂÃÂÃÂÃÂÃÂÃÂÃÂÃÂÃÂÃÂÃÂÃÂe,-1.298762663417791,36.82997673829325,480.0,,,P31957,0
de:08211:31958:0:1,Baden-Baden Birkenbuckel,-1.2814359021669899,36.81233234539257,480.0,,,,0
de:08211:31959:0:1,Lichtental Bildeiche,-1.2982004116461592,36.818692156533814,480.0,,,P31959,0
de:08211:31959:0:2,Lichtental Bildeiche,-1.295849307924196,36.815003579505536,480.0,,,P31959,0
de:08211:31960:0:1,Baden-Baden Bertholdplatz,-1.2977303938900564,36.81702357537172,480.0,,,P31960,0
de:08211:31960:0:2,Baden-Baden Bertholdplatz,-1.2818142446084746,36.82870150841808,480.0,,,P31960,0
de:08211:31960:0:3,Baden-Baden Bertholdplatz,-1.299553174605915,36.82891482855167,480.0,,,P31960,0
de:08211:31962:0:1,Balg BaumackerstraÃÂÃÂÃÂÃÂÃÂÃÂÃÂÃÂÃÂÃÂÃÂÃÂÃÂÃÂÃÂÃÂÃÂÃÂÃÂÃÂÃÂÃÂÃÂÃÂÃÂÃÂÃÂÃÂÃÂÃÂÃÂÃÂÃÂÃÂÃÂÃÂÃÂÃÂÃÂÃÂÃÂÃÂÃÂÃÂÃÂÃÂÃÂÃÂÃÂÃÂÃÂÃÂÃÂÃÂÃÂÃÂÃÂÃÂÃÂÃÂÃÂÃÂÃÂÃÂe,-1.2894867640818044,36.8215356264706,480.0,,,P31962,0
de:08211:31962:0:2,Balg BaumackerstraÃÂÃÂÃÂÃÂÃÂÃÂÃÂÃÂÃÂÃÂÃÂÃÂÃÂÃÂÃÂÃÂÃÂÃÂÃÂÃÂÃÂÃÂÃÂÃÂÃÂÃÂÃÂÃÂÃÂÃÂÃÂÃÂÃÂÃÂÃÂÃÂÃÂÃÂÃÂÃÂÃÂÃÂÃÂÃÂÃÂÃÂÃÂÃÂÃÂÃÂÃÂÃÂÃÂÃÂÃÂÃÂÃÂÃÂÃÂÃÂÃÂÃÂÃÂÃÂe,-1.287314130817007,36.816932245917464,480.0,,,P31962,0
de:08211:31963:0:1,Baden-Baden BauernfeldstraÃÂÃÂÃÂÃÂÃÂÃÂÃÂÃÂÃÂÃÂÃÂÃÂÃÂÃÂÃÂÃÂÃÂÃÂÃÂÃÂÃÂÃÂÃÂÃÂÃÂÃÂÃÂÃÂÃÂÃÂÃÂÃÂÃÂÃÂÃÂÃÂÃÂÃÂÃÂÃÂÃÂÃÂÃÂÃÂÃÂÃÂÃÂÃÂÃÂÃÂÃÂÃÂÃÂÃÂÃÂÃÂÃÂÃÂÃÂÃÂÃÂÃÂÃÂÃÂe,-1.2950618884684157,36.8163470134158,480.0,,,P31963,0
de:08211:31963:0:2,Baden-Baden BauernfeldstraÃÂÃÂÃÂÃÂÃÂÃÂÃÂÃÂÃÂÃÂÃÂÃÂÃÂÃÂÃÂÃÂÃÂÃÂÃÂÃÂÃÂÃÂÃÂÃÂÃÂÃÂÃÂÃÂÃÂÃÂÃÂÃÂÃÂÃÂÃÂÃÂÃÂÃÂÃÂÃÂÃÂÃÂÃÂÃÂÃÂÃÂÃÂÃÂÃÂÃÂÃÂÃÂÃÂÃÂÃÂÃÂÃÂÃÂÃÂÃÂÃÂÃÂÃÂÃÂe,-1.291970865816929,36.8139692493957,480.0,,,P31963,0
de:08211:31964:0:1,Balg Kirche,-1.2838138331675688,36.82198951205079,480.0,,,P31964,0
de:08211:31964:0:2,Balg Kirche,-1.2966873590522072,36.829701413952115,480.0,,,P31964,0
de:08211:31965:0:1,Balg Friedhof,-1.2915455122958097,36.828170846784914,480.0,,,,0
de:08211:31967:0:1,Lichtental AubrÃÂÃÂÃÂÃÂÃÂÃÂÃÂÃÂÃÂÃÂÃÂÃÂÃÂÃÂÃÂÃÂÃÂÃÂÃÂÃÂÃÂÃÂÃÂÃÂÃÂÃÂÃÂÃÂÃÂÃÂÃÂÃÂÃÂÃÂÃÂÃÂÃÂÃÂÃÂÃÂÃÂÃÂÃÂÃÂÃÂÃÂÃÂÃÂÃÂÃÂÃÂÃÂÃÂÃÂÃÂÃÂÃÂÃÂÃÂÃÂÃÂÃÂÃÂÃÂ¼cke,-1.284112381152856,36.82296064452071,480.0,,,P31967,0
de:08211:31967:0:2,Lichtental AubrÃÂÃÂÃÂÃÂÃÂÃÂÃÂÃÂÃÂÃÂÃÂÃÂÃÂÃÂÃÂÃÂÃÂÃÂÃÂÃÂÃÂÃÂÃÂÃÂÃÂÃÂÃÂÃÂÃÂÃÂÃÂÃÂÃÂÃÂÃÂÃÂÃÂÃÂÃÂÃÂÃÂÃÂÃÂÃÂÃÂÃÂÃÂÃÂÃÂÃÂÃÂÃÂÃÂÃÂÃÂÃÂÃÂÃÂÃÂÃÂÃÂÃÂÃÂÃÂ¼cke,-1.2947450993044278,36.82595368831814,480.0,,,P31967,0
de:08211:31968:0:1,Varnhalt Am Kirchberg,-1.2866532906700827,36.81572222615062,480.0,,,P31968,0
de:08211:31968:0:3,Varnhalt Am Kirchberg,-1.298068908697964,36.82199300001697,480.0,,,P31968,0
de:08211:32170:0:1,Geroldsau Geroldsauer MÃÂÃÂÃÂÃÂÃÂÃÂÃÂÃÂÃÂÃÂÃÂÃÂÃÂÃÂÃÂÃÂÃÂÃÂÃÂÃÂÃÂÃÂÃÂÃÂÃÂÃÂÃÂÃÂÃÂÃÂÃÂÃÂÃÂÃÂÃÂÃÂÃÂÃÂÃÂÃÂÃÂÃÂÃÂÃÂÃÂÃÂÃÂÃÂÃÂÃÂÃÂÃÂÃÂÃÂÃÂÃÂÃÂÃÂÃÂÃÂÃÂÃÂÃÂÃÂ¼hle,-1.2841126903124378,36.81917196617692,480.0,,,P32170,0
de:08211:32170:0:2,Geroldsau Geroldsauer MÃÂÃÂÃÂÃÂÃÂÃÂÃÂÃÂÃÂÃÂÃÂÃÂÃÂÃÂÃÂÃÂÃÂÃÂÃÂÃÂÃÂÃÂÃÂÃÂÃÂÃÂÃÂÃÂÃÂÃÂÃÂÃÂÃÂÃÂÃÂÃÂÃÂÃÂÃÂÃÂÃÂÃÂÃÂÃÂÃÂÃÂÃÂÃÂÃÂÃÂÃÂÃÂÃÂÃÂÃÂÃÂÃÂÃÂÃÂÃÂÃÂÃÂÃÂÃÂ¼hle,-1.2881641683837304,36.824853945219594,480.0,,,P32170,0
de:08211:32209:1:1,BAD Hindenburgpl./Stadtbib.,-1.2879239960277538,36.82273872310459,480.0,,,P32209,0
de:08211:32209:1:2,BAD Hindenburgpl./Stadtbib.,-1.29176955407012,36.826935398977966,480.0,,,P32209,0
de:08211:32254:2:4,BAD Hindenburgplatz (Kaiserallee),-1.2905010467920215,36.81964335294428,480.0,,,P32254,0
de:08211:32355:0:1,Steinbach Yburgstr./Sportsch.,-1.2847799596977423,36.8100152938547,480.0,,,P32355,0
de:08211:32355:0:2,Steinbach Yburgstr./Sportsch.,-1.2975705677160572,36.8139144794823,480.0,,,P32355,0
de:08211:32356:0:1,Steinbach Vimbucher Str.,-1.2827166116976931,36.82462083534271,480.0,,,P32356,0
de:08211:32356:0:2,Steinbach Vimbucher Str.,-1.294902165032452,36.818797944351395,480.0,,,P32356,0
de:08211:32357:0:1,Steinbach Schule,-1.2805262730639768,36.812718846473665,480.0,,,P32357,0
de:08211:32357:0:2,Steinbach Schule,-1.2839985151189515,36.81544989477939,480.0,,,P32357,0
de:08211:32360:0:1,Steinbach Steinbacher Str./Postplatz,-1.2968325846522477,36.82681657103057,480.0,,,P32360,0
de:08211:32360:0:2,Steinbach Steinbacher Str./Postplatz,-1.2872448716088054,36.82702419148072,480.0,,,P32360,0
de:08211:32361:0:1,Steinbach YburgstraÃÂÃÂÃÂÃÂÃÂÃÂÃÂÃÂÃÂÃÂÃÂÃÂÃÂÃÂÃÂÃÂÃÂÃÂÃÂÃÂÃÂÃÂÃÂÃÂÃÂÃÂÃÂÃÂÃÂÃÂÃÂÃÂÃÂÃÂÃÂÃÂÃÂÃÂÃÂÃÂÃÂÃÂÃÂÃÂÃÂÃÂÃÂÃÂÃÂÃÂÃÂÃÂÃÂÃÂÃÂÃÂÃÂÃÂÃÂÃÂÃÂÃÂÃÂÃÂe/Postplatz,-1.2861596529987185,36.81954079379767,480.0,,,,0
de:08211:32362:0:1,Steinbach Alte Landstr.,-1.2850644972392644,36.81467973168598,480.0,,,P32362,0
de:08211:32362:0:2,Steinbach Alte Landstr.,-1.2816923335903025,36.826054360889735,480.0,,,P32362,0
de:08211:32363:0:1,Neuweier Winzergenossenschaft,-1.291535817905047,36.82168937377308,480.0,,,P32363,0
de:08211:32363:0:2,Neuweier Winzergenossenschaft,-1.2971162469783346,36.81647864842312,480.0,,,P32363,0
de:08211:32364:0:1,Neuweier Schneckenbach,-1.2900847277132346,36.81586863655028,480.0,,,P32364,0
de:08211:32364:0:2,Neuweier Schneckenbach,-1.2857363922412668,36.82017601381474,480.0,,,P32364,0
de:08211:32365:0:1,Steinbach PoststraÃÂÃÂÃÂÃÂÃÂÃÂÃÂÃÂÃÂÃÂÃÂÃÂÃÂÃÂÃÂÃÂÃÂÃÂÃÂÃÂÃÂÃÂÃÂÃÂÃÂÃÂÃÂÃÂÃÂÃÂÃÂÃÂÃÂÃÂÃÂÃÂÃÂÃÂÃÂÃÂÃÂÃÂÃÂÃÂÃÂÃÂÃÂÃÂÃÂÃÂÃÂÃÂÃÂÃÂÃÂÃÂÃÂÃÂÃÂÃÂÃÂÃÂÃÂÃÂe/Postplatz,-1.2910508953147322,36.810561907908934,480.0,,,,0
de:08211:32366:0:1,Neuweier Kirche,-1.2822479022017665,36.82996232516383,480.0,,,P32366,0
de:08211:32366:0:2,Neuweier Kirche,-1.296873582501002,36.82123019129207,480.0,,,P32366,0
de:08211:32368:0:1,Steinbach GrabenstraÃÂÃÂÃÂÃÂÃÂÃÂÃÂÃÂÃÂÃÂÃÂÃÂÃÂÃÂÃÂÃÂÃÂÃÂÃÂÃÂÃÂÃÂÃÂÃÂÃÂÃÂÃÂÃÂÃÂÃÂÃÂÃÂÃÂÃÂÃÂÃÂÃÂÃÂÃÂÃÂÃÂÃÂÃÂÃÂÃÂÃÂÃÂÃÂÃÂÃÂÃÂÃÂÃÂÃÂÃÂÃÂÃÂÃÂÃÂÃÂÃÂÃÂÃÂÃÂe/Postplatz,-1.2922714700761568,36.81043263628965,480.0,,,P32368,0
de:08211:32368:0:92,Steinbach GrabenstraÃÂÃÂÃÂÃÂÃÂÃÂÃÂÃÂÃÂÃÂÃÂÃÂÃÂÃÂÃÂÃÂÃÂÃÂÃÂÃÂÃÂÃÂÃÂÃÂÃÂÃÂÃÂÃÂÃÂÃÂÃÂÃÂÃÂÃÂÃÂÃÂÃÂÃÂÃÂÃÂÃÂÃÂÃÂÃÂÃÂÃÂÃÂÃÂÃÂÃÂÃÂÃÂÃÂÃÂÃÂÃÂÃÂÃÂÃÂÃÂÃÂÃÂÃÂÃÂe/Postplatz,-1.2917468662501392,36.811071180652185,480.0,,,P32368,0
de:08211:32370:1:1,Lichtental Brahmsplatz,-1.2904701640225438,36.816112850772555,480.0,,,P32370,0
de:08211:32370:1:2,Lichtental Brahmsplatz,-1.2913598561554729,36.82506560253763,480.0,,,P32370,0
de:08211:32371:0:1,Haueneberstein WaldstraÃÂÃÂÃÂÃÂÃÂÃÂÃÂÃÂÃÂÃÂÃÂÃÂÃÂÃÂÃÂÃÂÃÂÃÂÃÂÃÂÃÂÃÂÃÂÃÂÃÂÃÂÃÂÃÂÃÂÃÂÃÂÃÂÃÂÃÂÃÂÃÂÃÂÃÂÃÂÃÂÃÂÃÂÃÂÃÂÃÂÃÂÃÂÃÂÃÂÃÂÃÂÃÂÃÂÃÂÃÂÃÂÃÂÃÂÃÂÃÂÃÂÃÂÃÂÃÂe,-1.2824441329659928,36.81095818933085,480.0,,,P32371,0
de:08211:32371:0:2,Haueneberstein WaldstraÃÂÃÂÃÂÃÂÃÂÃÂÃÂÃÂÃÂÃÂÃÂÃÂÃÂÃÂÃÂÃÂÃÂÃÂÃÂÃÂÃÂÃÂÃÂÃÂÃÂÃÂÃÂÃÂÃÂÃÂÃÂÃÂÃÂÃÂÃÂÃÂÃÂÃÂÃÂÃÂÃÂÃÂÃÂÃÂÃÂÃÂÃÂÃÂÃÂÃÂÃÂÃÂÃÂÃÂÃÂÃÂÃÂÃÂÃÂÃÂÃÂÃÂÃÂÃÂe,-1.2986096151340918,36.82968247979778,480.0,,,P32371,0
de:08211:32372:0:1,Haueneberstein Karlsruher Str.,-1.2841167345630833,36.82927331306051,480.0,,,P32372,0
de:08211:32372:0:2,Haueneberstein Karlsruher Str.,-1.2956181836723772,36.82860835661194,480.0,,,P32372,0
de:08211:32374:0:1,Geroldsau Schule,-1.280176090131437,36.81127038052808,480.0,,,P32374,0
de:08211:32374:0:2,Geroldsau Schule,-1.2919016421043028,36.81051592612118,480.0,,,P32374,0
de:08211:32375:0:1,Geroldsau Schmiegrankweg,-1.2932505770645124,36.82368429891164,480.0,,,P32375,0
de:08211:32375:0:2,Geroldsau Schmiegrankweg,-1.284147026421589,36.81487400131593,480.0,,,P32375,0
de:08211:32376:0:1,Geroldsau Malschbacher Str.,-1.298610971058336,36.82603950448545,480.0,,,P32376,0
de:08211:32376:0:2,Geroldsau Malschbacher Str.,-1.298341043213697,36.82138318903167,480.0,,,P32376,0
de:08211:32379:0:1,Baden-Baden Schweigrother Platz,-1.2805945462357136,36.824519372962406,480.0,,,P32379,0
de:08211:32379:0:2,Baden-Baden Schweigrother Platz,-1.2949367594303525,36.8198358457129,480.0,,,P32379,0
de:08211:32379:0:3,Baden-Baden Schweigrother Platz,-1.2915687963576967,36.81863973485345,480.0,,,P32379,0
de:08211:32380:1:1,Baden-Baden L.-Wilhelm-Stift,-1.2808548551827381,36.81502016923562,480.0,,,P32380,0
de:08211:32380:1:2,Baden-Baden L.-Wilhelm-Stift,-1.2941834391943694,36.81829714966425,480.0,,,P32380,0
de:08211:32380:2:3,Baden-Baden L.-Wilhelm-Stift,-1.2939153323517487,36.82825002706511,480.0,,,P32380,0
de:08211:32380:2:4,Baden-Baden L.-Wilhelm-Stift,-1.2836639434170667,36.826534685583596,480.0,,,P32380,0
de:08211:32384:0:1,Baden-Baden KÃÂÃÂÃÂÃÂÃÂÃÂÃÂÃÂÃÂÃÂÃÂÃÂÃÂÃÂÃÂÃÂÃÂÃÂÃÂÃÂÃÂÃÂÃÂÃÂÃÂÃÂÃÂÃÂÃÂÃÂÃÂÃÂÃÂÃÂÃÂÃÂÃÂÃÂÃÂÃÂÃÂÃÂÃÂÃÂÃÂÃÂÃÂÃÂÃÂÃÂÃÂÃÂÃÂÃÂÃÂÃÂÃÂÃÂÃÂÃÂÃÂÃÂÃÂÃÂ¶nigsberger Str.,-1.2910390941103633,36.823905957540205,480.0,,,P32384,0
de:08211:32384:0:2,Baden-Baden KÃÂÃÂÃÂÃÂÃÂÃÂÃÂÃÂÃÂÃÂÃÂÃÂÃÂÃÂÃÂÃÂÃÂÃÂÃÂÃÂÃÂÃÂÃÂÃÂÃÂÃÂÃÂÃÂÃÂÃÂÃÂÃÂÃÂÃÂÃÂÃÂÃÂÃÂÃÂÃÂÃÂÃÂÃÂÃÂÃÂÃÂÃÂÃÂÃÂÃÂÃÂÃÂÃÂÃÂÃÂÃÂÃÂÃÂÃÂÃÂÃÂÃÂÃÂÃÂ¶nigsberger Str.,-1.2852846900802235,36.82493724694919,480.0,,,P32384,0
de:08211:32385:0:1,Baden-Baden Kleine Dollenstr.,-1.2985330956382741,36.818311769151244,480.0,,,P32385,0
de:08211:32385:0:2,Baden-Baden Kleine Dollenstr.,-1.288403634607286,36.8213891094083,480.0,,,P32385,0
de:08211:32387:0:1,Baden-Baden Caracalla Therme,-1.2833431419449144,36.82000195586343,480.0,,,P32387,0
de:08211:32387:0:2,Baden-Baden Caracalla Therme,-1.2871604226205866,36.816977188595445,480.0,,,P32387,0
de:08211:32388:1:1,BAD Augustapl. / Museum Burda,-1.2898144418818416,36.82810555667811,480.0,,,P32388,0
de:08211:32388:1:2,BAD Augustapl. / Museum Burda,-1.2862234212255832,36.81255774620502,480.0,,,P32388,0
de:08211:32388:1:3,BAD Augustapl. / Museum Burda,-1.2884155458748308,36.82346827939381,480.0,,,P32388,0
de:08211:32388:2:4,Baden-Baden Augustaplatz,-1.2877492009115594,36.81285348794398,480.0,,,P32388,0
de:08211:32388:2:5,BAD Augustapl. / Museum Burda,-1.2945600967312876,36.82235032709713,480.0,,,P32388,0
de:08211:32388:2:6,BAD Augustapl. / Museum Burda,-1.2936341128437885,36.820104095400325,480.0,,,P32388,0
de:08211:32389:0:1,Baden-Baden Festspielhaus,-1.290200565514626,36.81708538675139,480.0,,,P32389,0
de:08211:32389:0:2,Baden-Baden Festspielhaus,-1.2937529999510977,36.8137748429002,480.0,,,P32389,0
de:08211:32392:1:11,BAD Leopoldsplatz (LuisenstraÃÂÃÂÃÂÃÂÃÂÃÂÃÂÃÂÃÂÃÂÃÂÃÂÃÂÃÂÃÂÃÂÃÂÃÂÃÂÃÂÃÂÃÂÃÂÃÂÃÂÃÂÃÂÃÂÃÂÃÂÃÂÃÂÃÂÃÂÃÂÃÂÃÂÃÂÃÂÃÂÃÂÃÂÃÂÃÂÃÂÃÂÃÂÃÂÃÂÃÂÃÂÃÂÃÂÃÂÃÂÃÂÃÂÃÂÃÂÃÂÃÂÃÂÃÂÃÂe),-1.2998606651482478,36.81677338836535,480.0,,,P32392,0
de:08211:32392:1:12,BAD Leopoldsplatz (LuisenstraÃÂÃÂÃÂÃÂÃÂÃÂÃÂÃÂÃÂÃÂÃÂÃÂÃÂÃÂÃÂÃÂÃÂÃÂÃÂÃÂÃÂÃÂÃÂÃÂÃÂÃÂÃÂÃÂÃÂÃÂÃÂÃÂÃÂÃÂÃÂÃÂÃÂÃÂÃÂÃÂÃÂÃÂÃÂÃÂÃÂÃÂÃÂÃÂÃÂÃÂÃÂÃÂÃÂÃÂÃÂÃÂÃÂÃÂÃÂÃÂÃÂÃÂÃÂÃÂe),-1.2953926007509609,36.81757408655776,480.0,,,P32392,0
de:08211:32393:1:21,Baden-Baden Leopoldspl. (Sophienstr.),-1.2978468017282931,36.82007541386966,480.0,,,P32393,0
de:08211:32393:1:22,Baden-Baden Leopoldspl. (Sophienstr.),-1.288243328225284,36.82965446957721,480.0,,,P32393,0
de:08211:32549:0:1,BAD Altenpflegeheim Schafberg,-1.2993761107758939,36.82337018649642,480.0,,,,0
de:08211:32832:0:1,Varnhalt Im Lindenbosch,-1.2933332061899034,36.81293133808386,480.0,,,P32832,0
de:08211:32832:0:2,Varnhalt Im Lindenbosch,-1.2996006402606992,36.82001561790152,480.0,,,P32832,0
de:08211:33088:1:1,Baden-Baden Pariser Platz CitÃÂÃÂÃÂÃÂÃÂÃÂÃÂÃÂÃÂÃÂÃÂÃÂÃÂÃÂÃÂÃÂÃÂÃÂÃÂÃÂÃÂÃÂÃÂÃÂÃÂÃÂÃÂÃÂÃÂÃÂÃÂÃÂÃÂÃÂÃÂÃÂÃÂÃÂÃÂÃÂÃÂÃÂÃÂÃÂÃÂÃÂÃÂÃÂÃÂÃÂÃÂÃÂÃÂÃÂÃÂÃÂÃÂÃÂÃÂÃÂÃÂÃÂÃÂÃÂ©,-1.2865232641000461,36.822954139285685,480.0,,,P33088,0
de:08211:33089:1:1,Baden-Baden Campus CitÃÂÃÂÃÂÃÂÃÂÃÂÃÂÃÂÃÂÃÂÃÂÃÂÃÂÃÂÃÂÃÂÃÂÃÂÃÂÃÂÃÂÃÂÃÂÃÂÃÂÃÂÃÂÃÂÃÂÃÂÃÂÃÂÃÂÃÂÃÂÃÂÃÂÃÂÃÂÃÂÃÂÃÂÃÂÃÂÃÂÃÂÃÂÃÂÃÂÃÂÃÂÃÂÃÂÃÂÃÂÃÂÃÂÃÂÃÂÃÂÃÂÃÂÃÂÃÂ© / VHS,-1.2994822250259759,36.8123438571088,480.0,,,P33089,0
de:08211:33090:1:1,Baden-Baden Shopping CitÃÂÃÂÃÂÃÂÃÂÃÂÃÂÃÂÃÂÃÂÃÂÃÂÃÂÃÂÃÂÃÂÃÂÃÂÃÂÃÂÃÂÃÂÃÂÃÂÃÂÃÂÃÂÃÂÃÂÃÂÃÂÃÂÃÂÃÂÃÂÃÂÃÂÃÂÃÂÃÂÃÂÃÂÃÂÃÂÃÂÃÂÃÂÃÂÃÂÃÂÃÂÃÂÃÂÃÂÃÂÃÂÃÂÃÂÃÂÃÂÃÂÃÂÃÂÃÂ©,-1.2913719740004588,36.81482060110104,480.0,,,,0
de:08211:33091:0:1,Baden-Baden Gewerbepark CitÃÂÃÂÃÂÃÂÃÂÃÂÃÂÃÂÃÂÃÂÃÂÃÂÃÂÃÂÃÂÃÂÃÂÃÂÃÂÃÂÃÂÃÂÃÂÃÂÃÂÃÂÃÂÃÂÃÂÃÂÃÂÃÂÃÂÃÂÃÂÃÂÃÂÃÂÃÂÃÂÃÂÃÂÃÂÃÂÃÂÃÂÃÂÃÂÃÂÃÂÃÂÃÂÃÂÃÂÃÂÃÂÃÂÃÂÃÂÃÂÃÂÃÂÃÂÃÂ©,-1.2986617609452622,36.81293714530232,480.0,,,P33091,0
de:08211:33091:0:2,Baden-Baden Gewerbepark CitÃÂÃÂÃÂÃÂÃÂÃÂÃÂÃÂÃÂÃÂÃÂÃÂÃÂÃÂÃÂÃÂÃÂÃÂÃÂÃÂÃÂÃÂÃÂÃÂÃÂÃÂÃÂÃÂÃÂÃÂÃÂÃÂÃÂÃÂÃÂÃÂÃÂÃÂÃÂÃÂÃÂÃÂÃÂÃÂÃÂÃÂÃÂÃÂÃÂÃÂÃÂÃÂÃÂÃÂÃÂÃÂÃÂÃÂÃÂÃÂÃÂÃÂÃÂÃÂ©,-1.288297591849938,36.82379091449845,480.0,,,P33091,0
de:08211:33108:1:1,Baden-Baden Kino CitÃÂÃÂÃÂÃÂÃÂÃÂÃÂÃÂÃÂÃÂÃÂÃÂÃÂÃÂÃÂÃÂÃÂÃÂÃÂÃÂÃÂÃÂÃÂÃÂÃÂÃÂÃÂÃÂÃÂÃÂÃÂÃÂÃÂÃÂÃÂÃÂÃÂÃÂÃÂÃÂÃÂÃÂÃÂÃÂÃÂÃÂÃÂÃÂÃÂÃÂÃÂÃÂÃÂÃÂÃÂÃÂÃÂÃÂÃÂÃÂÃÂÃÂÃÂÃÂ© / P+R,-1.2825872043610413,36.823643194408625,480.0,,,P33108,0
de:08211:33109:0:1,Baden-Baden Bretagne,-1.281094769430144,36.825870814796076,480.0,,,P33109,0
de:08211:33109:0:2,Baden-Baden Bretagne,-1.296626405733209,36.81472980192275,480.0,,,P33109,0
de:08211:33151:1:1,Haueneberstein R.-Bosch-StraÃÂÃÂÃÂÃÂÃÂÃÂÃÂÃÂÃÂÃÂÃÂÃÂÃÂÃÂÃÂÃÂÃÂÃÂÃÂÃÂÃÂÃÂÃÂÃÂÃÂÃÂÃÂÃÂÃÂÃÂÃÂÃÂÃÂÃÂÃÂÃÂÃÂÃÂÃÂÃÂÃÂÃÂÃÂÃÂÃÂÃÂÃÂÃÂÃÂÃÂÃÂÃÂÃÂÃÂÃÂÃÂÃÂÃÂÃÂÃÂÃÂÃÂÃÂÃÂe,-1.2858398130131885,36.81316540722678,480.0,,,P33151,0
de:08211:33151:2:2,Haueneberstein R.-Bosch-StraÃÂÃÂÃÂÃÂÃÂÃÂÃÂÃÂÃÂÃÂÃÂÃÂÃÂÃÂÃÂÃÂÃÂÃÂÃÂÃÂÃÂÃÂÃÂÃÂÃÂÃÂÃÂÃÂÃÂÃÂÃÂÃÂÃÂÃÂÃÂÃÂÃÂÃÂÃÂÃÂÃÂÃÂÃÂÃÂÃÂÃÂÃÂÃÂÃÂÃÂÃÂÃÂÃÂÃÂÃÂÃÂÃÂÃÂÃÂÃÂÃÂÃÂÃÂÃÂe,-1.2893607125018092,36.82101090082449,480.0,,,P33151,0
de:08211:34755:0:1,Baden-Baden Zimmerplatz,-1.2864467062780405,36.812101458890886,480.0,,,P34755,0
